city,city_ascii,lat,lng,pop,country,iso2,iso3,province
Qal eh-ye Now,Qal eh-ye,34.98300013,63.13329964,2997,Afghanistan,AF,AFG,Badghis
Chaghcharan,Chaghcharan,34.5167011,65.25000063,15000,Afghanistan,AF,AFG,Ghor
Lashkar Gah,Lashkar Gah,31.58299802,64.35999955,201546,Afghanistan,AF,AFG,Hilmand
Zaranj,Zaranj,31.11200108,61.88699752,49851,Afghanistan,AF,AFG,Nimroz
Tarin Kowt,Tarin Kowt,32.63329815,65.86669865,10000,Afghanistan,AF,AFG,Uruzgan
Zareh Sharan,Zareh Sharan,32.85000016,68.41670453,13737,Afghanistan,AF,AFG,Paktika
Asadabad,Asadabad,34.86600004,71.15000459,48400,Afghanistan,AF,AFG,Kunar
Taloqan,Taloqan,36.72999904,69.54000364,64256,Afghanistan,AF,AFG,Takhar
Mahmud-E Eraqi,Mahmud-E Eraqi,35.01669608,69.33330065,7407,Afghanistan,AF,AFG,Kapisa
Mehtar Lam,Mehtar Lam,34.65000001,70.16670052,17345,Afghanistan,AF,AFG,Laghman
Baraki Barak,Baraki Barak,33.9667021,68.96670354,22305,Afghanistan,AF,AFG,Logar
Aybak,Aybak,36.26100015,68.04000051,24000,Afghanistan,AF,AFG,Samangan
Mayda Shahr,Mayda Shahr,34.45000209,68.79999663,35008,Afghanistan,AF,AFG,Wardak
Karokh,Karokh,34.48676963,62.59177608,14388.5,Afghanistan,AF,AFG,Hirat
Sheberghan,Sheberghan,36.65798077,65.73830237,74441,Afghanistan,AF,AFG,Jawzjan
Pol-e Khomri,Pol-e Khomri,35.95107302,68.70111894,41029,Afghanistan,AF,AFG,Baghlan
Balkh,Balkh,36.75011985,66.89973018,147426,Afghanistan,AF,AFG,Balkh
Meymaneh,Meymaneh,35.93022158,64.77009273,199795,Afghanistan,AF,AFG,Faryab
Andkhvoy,Andkhvoy,36.93165916,65.10149369,50469,Afghanistan,AF,AFG,Faryab
Qalat,Qalat,32.11226341,66.8867594,12191,Afghanistan,AF,AFG,Zabul
Ghazni,Ghazni,33.56331179,68.41782873,129892.5,Afghanistan,AF,AFG,Ghazni
Feyzabad,Feyzabad,37.12976076,70.57924719,52490,Afghanistan,AF,AFG,Badakhshan
Kondoz,Kondoz,36.72795066,68.87252966,210855.5,Afghanistan,AF,AFG,Kunduz
Jalalabad,Jalalabad,34.44152692,70.43610347,401697,Afghanistan,AF,AFG,Nangarhar
Charikar,Charikar,35.01826174,69.16791215,53676,Afghanistan,AF,AFG,Parwan
Gardiz,Gardiz,33.60005373,69.21462764,82680.5,Afghanistan,AF,AFG,Paktya
Bamian,Bamian,34.82106447,67.52103593,61863,Afghanistan,AF,AFG,Bamyan
Baghlan,Baghlan,36.13933026,68.69925858,163598.5,Afghanistan,AF,AFG,Baghlan
Farah,Farah,32.39172955,62.09681921,58604,Afghanistan,AF,AFG,Farah
Herat,Herat,34.33000917,62.16999304,439232.5,Afghanistan,AF,AFG,Hirat
Mazar-e Sharif,Mazar-e Sharif,36.69999371,67.10002803,365432.5,Afghanistan,AF,AFG,Balkh
Kandahar,Kandahar,31.61002016,65.69494584,613871,Afghanistan,AF,AFG,Kandahar
Kabul,Kabul,34.51669029,69.18326005,3160266,Afghanistan,AF,AFG,Kabul
Mariehamn,Mariehamn,60.09699618,19.94900447,10682,Aland,AX,ALD,Finström
Kruje,Kruje,41.51899817,19.79700359,21286,Albania,AL,ALB,Durrës
Fier,Fier,40.73000402,19.5730026,69747.5,Albania,AL,ALB,Fier
Lushnje,Lushnje,40.94000113,19.71600348,41469,Albania,AL,ALB,Fier
Puke,Puke,42.03330302,19.88330448,6495,Albania,AL,ALB,Shkodër
Bajram Curri,Bajram Curri,42.33330007,20.08330257,7967,Albania,AL,ALB,Kukës
Kukes,Kukes,42.08300107,20.43399653,17832,Albania,AL,ALB,Kukës
Sarande,Sarande,39.87700212,19.99999859,15147,Albania,AL,ALB,Vlorë
Erseke,Erseke,40.33330213,20.68329651,7890,Albania,AL,ALB,Korçë
Pogradec,Pogradec,40.89999612,20.66400062,35000,Albania,AL,ALB,Korçë
Korce,Korce,40.61667601,20.76666353,58259,Albania,AL,ALB,Korçë
Berat,Berat,40.70999705,19.97199958,46866,Albania,AL,ALB,Berat
Corovode,Corovode,40.51670403,20.23329663,14046,Albania,AL,ALB,Berat
Gramsh,Gramsh,40.86669601,20.19999652,11556,Albania,AL,ALB,Elbasan
Librazhd,Librazhd,41.20000211,20.3667036,12691,Albania,AL,ALB,Elbasan
Tepelene,Tepelene,40.2832981,20.03329854,11955,Albania,AL,ALB,Gjirokastër
Permet,Permet,40.23399605,20.35199756,10686,Albania,AL,ALB,Gjirokastër
Gjirokaster,Gjirokaster,40.07899809,20.14900256,23437,Albania,AL,ALB,Gjirokastër
Peshkopi,Peshkopi,41.6833021,20.43330349,14848,Albania,AL,ALB,Dibër
Burrel,Burrel,41.62599908,20.01600053,15405,Albania,AL,ALB,Dibër
Lezhe,Lezhe,41.78799914,19.65400254,18695,Albania,AL,ALB,Lezhë
Rreshen,Rreshen,41.78330106,19.81670459,10064,Albania,AL,ALB,Lezhë
Vlore,Vlore,40.47736005,19.49823075,89508.5,Albania,AL,ALB,Vlorë
Elbasan,Elbasan,41.12150677,20.08382808,132956.5,Albania,AL,ALB,Elbasan
Durres,Durres,41.3177997,19.44820797,132233,Albania,AL,ALB,Durrës
Shkoder,Shkoder,42.06845156,19.51884965,122006,Albania,AL,ALB,Shkodër
Tirana,Tirana,41.32754071,19.81888301,658318,Albania,AL,ALB,Durrës
Jijel,Jijel,36.82199703,5.76600356,148000,Algeria,DZ,DZA,Jijel
Tizi-Ouzou,Tizi-Ouzou,36.80000111,4.033332556,144000,Algeria,DZ,DZA,Tizi Ouzou
Bordj Bou Arreridj,Bordj Bou Arreridj,36.05900401,4.629996466,134500,Algeria,DZ,DZA,Bordj Bou Arréridj
M'sila,M'sila,35.7000031,4.545000584,125000,Algeria,DZ,DZA,M'Sila
Guelma,Guelma,36.46600213,7.427997486,123590,Algeria,DZ,DZA,Guelma
Oum el Bouaghi,Oum el Bouaghi,35.84999715,7.149996522,100821,Algeria,DZ,DZA,Oum el Bouaghi
Timimoun,Timimoun,29.23652163,0.269998737,26568,Algeria,DZ,DZA,Adrar
Sidi bel Abbes,Sidi bel Abbes,35.19034426,-0.639971559,200186.5,Algeria,DZ,DZA,Sidi Bel Abbès
Tlimcen,Tlimcen,34.89041424,-1.32000757,181059,Algeria,DZ,DZA,Tlemcen
Beni Ounif,Beni Ounif,32.04926984,-1.251381268,5628,Algeria,DZ,DZA,Béchar
Abadla,Abadla,31.01708478,-2.733306317,14364,Algeria,DZ,DZA,Béchar
Sefra,Sefra,32.76041506,-0.579949383,51118,Algeria,DZ,DZA,Naâma
Skikda,Skikda,36.88042198,6.899981647,193941.5,Algeria,DZ,DZA,Skikda
Djanet,Djanet,24.5529057,9.482252969,666,Algeria,DZ,DZA,Illizi
I-n-Amenas,I-n-Amenas,28.0503408,9.550000772,216,Algeria,DZ,DZA,Illizi
In Amguel,In Amguel,23.69394004,5.164738727,3030,Algeria,DZ,DZA,Tamanghasset
El Bayadh,El Bayadh,33.6903583,1.009953571,67413,Algeria,DZ,DZA,El Bayadh
El Oued,El Oued,33.37040367,6.859984089,177497,Algeria,DZ,DZA,Biskra
Hassi Messaoud,Hassi Messaoud,31.70234011,6.054451862,18124,Algeria,DZ,DZA,Ouargla
Chlef,Chlef,36.17041363,1.319960489,449167,Algeria,DZ,DZA,Chlef
Mascara,Mascara,35.40040895,0.14003251,108230,Algeria,DZ,DZA,Mascara
Mostaganem,Mostaganem,35.940376,0.089983885,159177,Algeria,DZ,DZA,Mostaganem
Saida,Saida,34.84039146,0.14003251,134855,Algeria,DZ,DZA,Saïda
Tiarat,Tiarat,35.38043601,1.319960489,184195,Algeria,DZ,DZA,Tiaret
Bejaia,Bejaia,36.76037762,5.070015827,274520,Algeria,DZ,DZA,Béjaïa
Blida,Blida,36.4203467,2.829997517,388174,Algeria,DZ,DZA,Blida
Bouira,Bouira,36.38047833,3.900009724,110144,Algeria,DZ,DZA,Bouira
Medea,Medea,36.27040753,2.770001179,145863.5,Algeria,DZ,DZA,Médéa
Souk Ahras,Souk Ahras,36.29038047,7.949995075,134947,Algeria,DZ,DZA,Souk Ahras
Tebessa,Tebessa,35.41043418,8.120010537,171742,Algeria,DZ,DZA,Tébessa
Adrar,Adrar,27.86999005,-0.289967083,56910,Algeria,DZ,DZA,Adrar
Reggane,Reggane,26.69998395,0.166645873,22351.5,Algeria,DZ,DZA,Adrar
Bechar,Bechar,31.61110537,-2.230003704,142415.5,Algeria,DZ,DZA,Béchar
Tindouf,Tindouf,27.67418805,-8.147782025,18270,Algeria,DZ,DZA,Tindouf
Illizi,Illizi,26.48335634,8.466604369,7293,Algeria,DZ,DZA,Illizi
Arak,Arak,25.2799931,3.749993041,423251,Algeria,DZ,DZA,Tamanghasset
I-n-Salah,I-n-Salah,27.21664492,2.466608845,28632,Algeria,DZ,DZA,Tamanghasset
El Golea,El Golea,30.56662132,2.883327595,32049,Algeria,DZ,DZA,Ghardaïa
Laghouat,Laghouat,33.80998924,2.880020303,108279,Algeria,DZ,DZA,Laghouat
Touggourt,Touggourt,33.0999809,6.05998124,91499,Algeria,DZ,DZA,Ouargla
Ouargla,Ouargla,31.96997235,5.340025186,176271,Algeria,DZ,DZA,Ouargla
Biskra,Biskra,34.85997683,5.73002722,202103,Algeria,DZ,DZA,Biskra
Djelfa,Djelfa,34.67998781,3.250023558,170901,Algeria,DZ,DZA,Djelfa
Setif,Setif,36.18002545,5.399969847,274744,Algeria,DZ,DZA,Sétif
Batna,Batna,35.56995933,6.170000365,269467,Algeria,DZ,DZA,Batna
Annaba,Annaba,36.92000612,7.759980834,355047,Algeria,DZ,DZA,Annaba
Constantine,Constantine,36.35998863,6.599948281,527638,Algeria,DZ,DZA,Constantine
Oran,Oran,35.71000246,-0.61997278,721992,Algeria,DZ,DZA,Oran
Tamanrasset,Tamanrasset,22.78500327,5.522804727,71808,Algeria,DZ,DZA,Tamanghasset
Ghardaia,Ghardaia,32.48999229,3.669997923,125480,Algeria,DZ,DZA,Ghardaïa
Algiers,Algiers,36.7630648,3.05055253,2665831.5,Algeria,DZ,DZA,Alger
Pago Pago,Pago Pago,-14.2766105,-170.7066451,12038,American Samoa,AS,ASM,
Andorra,Andorra,42.50000144,1.516485961,38127,Andorra,AD,AND,
Mucusso,Mucusso,-18.01953449,21.42999914,100,Angola,AO,AGO,Cuando Cubango
Lucapa,Lucapa,-8.419603659,20.74001542,25578,Angola,AO,AGO,Lunda Norte
Capenda-Camulemba,Capenda-Camulemba,-9.4195943,18.43002722,79842.5,Angola,AO,AGO,Lunda Norte
Saurimo,Saurimo,-9.659579652,20.39001094,40907,Angola,AO,AGO,Lunda Sul
Muconda,Muconda,-10.59962563,21.31998002,2324,Angola,AO,AGO,Lunda Sul
Cacolo,Cacolo,-10.14962726,19.2600024,984,Angola,AO,AGO,Lunda Sul
Caxito,Caxito,-8.579542217,13.65998246,15665.5,Angola,AO,AGO,Bengo
Camabatela,Camabatela,-8.189591859,15.37000728,12731,Angola,AO,AGO,Cuanza Norte
Ndalatando,Ndalatando,-9.299549948,14.90998368,8144,Angola,AO,AGO,Cuanza Norte
Quibala,Quibala,-10.72959186,14.97995357,5248.5,Angola,AO,AGO,Cuanza Sul
Calulo,Calulo,-9.999610577,14.90001013,795,Angola,AO,AGO,Cuanza Sul
Waku Kungo,Waku Kungo,-11.35952757,15.1199967,11519.5,Angola,AO,AGO,Cuanza Sul
Songo,Songo,-7.349591452,14.84998734,10579,Angola,AO,AGO,Uíge
Mbanza-Congo,Mbanza-Congo,-6.269605694,14.23999874,42201,Angola,AO,AGO,Zaire
Nzeto,Nzeto,-7.229598776,12.86003129,19705.5,Angola,AO,AGO,Zaire
Soyo,Soyo,-6.129614239,12.36998368,65329,Angola,AO,AGO,Zaire
Cabinda,Cabinda,-5.55962319,12.18999467,78905.5,Angola,AO,AGO,Cabinda
Calucinga,Calucinga,-11.31958169,16.19998246,531,Angola,AO,AGO,Bié
Camacupa,Camacupa,-12.01959064,17.46998246,19489,Angola,AO,AGO,Bié
Cubal,Cubal,-13.03958006,14.23999874,4837,Angola,AO,AGO,Benguela
Mavinga,Mavinga,-15.7895414,20.36003861,30000,Angola,AO,AGO,Cuando Cubango
Cuito Caunavale,Cuito Caunavale,-15.15960569,19.16998205,149,Angola,AO,AGO,Cuando Cubango
Luiana,Luiana,-17.36954832,22.99998083,150,Angola,AO,AGO,Cuando Cubango
Ondjiva,Ondjiva,-17.06961831,15.73003699,8748,Angola,AO,AGO,Cunene
Chitado,Chitado,-17.31962889,13.92001827,468.5,Angola,AO,AGO,Cunene
Chibemba,Chibemba,-15.74959552,14.0800085,1502,Angola,AO,AGO,Huíla
Chibia,Chibia,-15.1896297,13.69000647,1411,Angola,AO,AGO,Huíla
Quipungo,Quipungo,-14.82954832,14.55000565,186,Angola,AO,AGO,Huíla
Luau,Luau,-10.7095414,22.23000199,9964,Angola,AO,AGO,Moxico
Cangamba,Cangamba,-13.69959145,19.86001745,1307,Angola,AO,AGO,Moxico
Lumbala Nguimbo,Lumbala Nguimbo,-14.09961871,21.44002437,25,Angola,AO,AGO,Moxico
Cazombo,Cazombo,-11.88957273,22.90003861,298,Angola,AO,AGO,Moxico
Dundo,Dundo,-7.380028871,20.82998409,11985,Angola,AO,AGO,Lunda Norte
Ambriz,Ambriz,-7.85498696,13.12502803,17000,Angola,AO,AGO,Bengo
Dondo,Dondo,-9.690017071,14.43001298,2353,Angola,AO,AGO,Cuanza Norte
Sumbe,Sumbe,-11.21002765,13.8499967,29638.5,Angola,AO,AGO,Cuanza Sul
Uige,Uige,-7.620014222,15.04997514,56787.5,Angola,AO,AGO,Uíge
Kuito,Kuito,-12.38003375,16.93998897,113955,Angola,AO,AGO,Bié
Lobito,Lobito,-12.37000853,13.54123002,170733,Angola,AO,AGO,Benguela
Xangongo,Xangongo,-16.74002602,14.96998002,447,Angola,AO,AGO,Cunene
Luena,Luena,-11.79004393,19.90001501,17276.5,Angola,AO,AGO,Moxico
Tômbua,Tombua,-15.80003172,11.85998897,40000,Angola,AO,AGO,Namibe
Malanje,Malanje,-9.540000388,16.34002559,106451,Angola,AO,AGO,Malanje
Benguela,Benguela,-12.57826455,13.40723303,142017,Angola,AO,AGO,Benguela
Lubango,Lubango,-14.91000853,13.49001868,114086.5,Angola,AO,AGO,Huíla
Namibe,Namibe,-15.19004311,12.16002234,128130.5,Angola,AO,AGO,Namibe
Menongue,Menongue,-14.66661253,17.69999426,13030,Angola,AO,AGO,Cuando Cubango
Huambo,Huambo,-12.74998533,15.76000932,986000,Angola,AO,AGO,Huambo
Luanda,Luanda,-8.838286114,13.23442704,3562086,Angola,AO,AGO,Luanda
Artigas Base,Artigas Base,-62.17388669,-58.86386407,34.5,Antarctica,AQ,ATA,
Capitan Arturo Prat Station,Capitan Arturo Prat Station,-62.49950682,-59.68331852,41,Antarctica,AQ,ATA,
Marambio Station,Vicecomodoro Marambio Station,-64.23288939,-56.6500153,102.5,Antarctica,AQ,ATA,
Zucchelli Station,Terra Nova Bay,-74.61919259,164.2190271,60,Antarctica,AQ,ATA,
Rothera Station,Rothera Station,-67.5647756,-68.12354055,76,Antarctica,AQ,ATA,
Palmer Station,Palmer Station,-64.76241335,-64.0468756,30.5,Antarctica,AQ,ATA,
Base Presidente Montalva,Teniente Rodolfo Marsh Station,-62.18274357,-58.90765233,115,Antarctica,AQ,ATA,
Carlini Station,Teniente Jubany Station,-62.22414386,-58.65047599,40,Antarctica,AQ,ATA,
King Sejong Station,King Sejong Station,-62.2248534,-58.77159876,53.5,Antarctica,AQ,ATA,
Great Wall Station,Great Wall Station,-62.21631997,-58.9666956,26,Antarctica,AQ,ATA,
Escudero Base,Escudero Station,-62.19496251,-58.95266582,20,Antarctica,AQ,ATA,
Elephant Island,"Elephant Island, South Shetland Islands",-61.99958901,-57.99998458,3,Antarctica,AQ,ATA,
Scott Base,Scott Base,-77.84693819,166.7491023,49.5,Antarctica,AQ,ATA,
McMurdo Station,McMurdo Station,-77.73228239,166.8694157,600,Antarctica,AQ,ATA,
Zhongshan Station,Zhongshan Station,-69.43406299,76.33929808,42.5,Antarctica,AQ,ATA,
Vostok,Vostok,-78.46628416,106.8000337,19,Antarctica,AQ,ATA,
Peter I Island,Peter I Island,-68.83286701,90.49999508,0.5,Antarctica,AQ,ATA,
Mirny Station,Mirny Station,-66.57552952,93.00628846,114.5,Antarctica,AQ,ATA,
Mawson Station,Mawson Station,-67.61452032,62.87500073,40,Antarctica,AQ,ATA,
Davis Station,Davis Station,-68.77767439,78.14073509,45,Antarctica,AQ,ATA,
Concordia Research Station,Concordia Research Station,-74.66630939,124.1670357,15,Antarctica,AQ,ATA,
Casey Station,Casey Station,-66.28608614,110.536214,125,Antarctica,AQ,ATA,
Amundsen–Scott South Pole Station,Amundsen–Scott South Pole Station,-89.98289386,139.2669926,125,Antarctica,AQ,ATA,
Wasa Station,Wasa Station,-73.0496122,-13.41671106,5,Antarctica,AQ,ATA,
Troll Station,Troll Station,-72.01629026,2.533323119,25.5,Antarctica,AQ,ATA,
Svea Station,Svea Station,-74.58290363,-11.21669031,5,Antarctica,AQ,ATA,
Novolazarevskaya Station,Novolazarevskaya Station,-71.30123475,-11.8502129,35,Antarctica,AQ,ATA,
Neumayer Station III,Neumayer,-70.89039668,-7.838438004,40,Antarctica,AQ,ATA,
Maitri Station,Maitri Station,-70.7821796,11.7304584,33,Antarctica,AQ,ATA,
Halley Station,Halley Station,-76.09226319,-26.4741567,43,Antarctica,AQ,ATA,
Belgrano Station,General Belgrano Station,-77.86632078,-34.61668319,57,Antarctica,AQ,ATA,
Camp Sobral,Doctor Sobral,-81.17908472,-40.50153152,20,Antarctica,AQ,ATA,
Aboa Station,Aboa Station,-75.04959349,-13.41671106,15,Antarctica,AQ,ATA,
San Martín Station,San Martín Station,-68.1163216,-67.0999976,19,Antarctica,AQ,ATA,
Gen. O'Higgins Station,General Bernado O'Higgins Station,-63.32841823,-57.88959352,30,Antarctica,AQ,ATA,
Esperanza Station,Esperanza Station,-63.37532865,-57.02590151,152.5,Antarctica,AQ,ATA,
Orcadas Station,Orcadas Station,-60.7328963,-44.73330082,29.5,Antarctica,AQ,ATA,
Signy Research Station,Signy Island,-60.63130815,-45.60070332,4,Antarctica,AQ,ATA,
Dumont d'Urville Station,Dumont d'Urville Station,-66.77505091,139.9636836,75,Antarctica,AQ,ATA,
Showa Station,Showa Station,-69.03039249,39.7460831,50,Antarctica,AQ,ATA,
Saint John's,Saint John's,17.11803652,-61.85003382,29862.5,Antigua and Barbuda,AG,ATG,
28 de Noviembre,28 de Noviembre,-51.65003986,-72.30001612,5300,Argentina,AR,ARG,Santa Cruz
Gobernador Gregores,Gobernador Gregores,-48.76659829,-70.25001205,2519,Argentina,AR,ARG,Santa Cruz
Comondante Luis Piedrabuena,Comondante Luis Piedrabuena,-49.97454865,-68.90347273,410,Argentina,AR,ARG,Santa Cruz
Paso Rio Mayo,Paso Rio Mayo,-45.68337563,-70.26657434,1825,Argentina,AR,ARG,Chubut
Alto Rio Sanguer,Alto Rio Sanguer,-45.03328611,-70.83328394,1548,Argentina,AR,ARG,Chubut
El Maiten,El Maiten,-42.05000568,-71.16662276,4269,Argentina,AR,ARG,Chubut
Puerto Madryn,Puerto Madryn,-42.77001341,-65.04001998,61159,Argentina,AR,ARG,Chubut
Trelew,Trelew,-43.25003579,-65.3299506,93128.5,Argentina,AR,ARG,Chubut
Las Heras,Las Heras,-32.82503904,-68.80167668,66663,Argentina,AR,ARG,Mendoza
San Martin,San Martin,-33.06998533,-68.49001612,99974,Argentina,AR,ARG,Mendoza
Uspallata,Uspallata,-32.59311522,-69.34598454,2390,Argentina,AR,ARG,Mendoza
Cutral Co,Cutral Co,-38.94001463,-69.24002202,47597,Argentina,AR,ARG,Neuquén
Punta Alta,Punta Alta,-38.87996662,-62.0799681,55969.5,Argentina,AR,ARG,Ciudad de Buenos Aires
San Nicolas,San Nicolas,-33.33002114,-60.24000289,117123.5,Argentina,AR,ARG,Ciudad de Buenos Aires
Campana,Campana,-34.15999632,-58.95997766,77149.5,Argentina,AR,ARG,Ciudad de Buenos Aires
Chacabuco,Chacabuco,-34.65004393,-60.48998763,26645,Argentina,AR,ARG,Ciudad de Buenos Aires
Mercedes,Mercedes,-34.66001748,-59.44002588,48408.5,Argentina,AR,ARG,Ciudad de Buenos Aires
Lincoln,Lincoln,-34.88000405,-61.53994938,19924,Argentina,AR,ARG,Ciudad de Buenos Aires
Chivilcoy,Chivilcoy,-34.89995115,-60.03998926,43719,Argentina,AR,ARG,Ciudad de Buenos Aires
Veinticinco de Mayo,Veinticinco de Mayo,-35.42999632,-60.17998071,18749,Argentina,AR,ARG,Ciudad de Buenos Aires
Nueve de Julio,Nueve de Julio,-35.44596434,-60.88998906,26716,Argentina,AR,ARG,Ciudad de Buenos Aires
Dolores,Dolores,-36.33004474,-57.68997766,21586.5,Argentina,AR,ARG,Ciudad de Buenos Aires
Pedro Luro,Pedro Luro,-39.48334064,-62.68331629,7100,Argentina,AR,ARG,Ciudad de Buenos Aires
Tres Arroyos,Tres Arroyos,-38.3699719,-60.26994938,34773.5,Argentina,AR,ARG,Ciudad de Buenos Aires
Coronel Suarez,Coronel Suarez,-37.46661619,-61.9166189,20713,Argentina,AR,ARG,Ciudad de Buenos Aires
Balcarce,Balcarce,-37.83331216,-58.24999516,18967,Argentina,AR,ARG,Ciudad de Buenos Aires
25 de Mayo,25 de Mayo,-37.80003253,-67.68329533,17430,Argentina,AR,ARG,Río Negro
General Roca,General Roca,-39.01995807,-67.60996647,38578,Argentina,AR,ARG,Río Negro
Comallo,Comallo,-41.03332355,-70.26657434,741,Argentina,AR,ARG,Río Negro
Ingeniero Jacobacci,Ingeniero Jacobacci,-41.30002562,-69.58330855,5719,Argentina,AR,ARG,Río Negro
General Conesa,General Conesa,-40.10004718,-64.43328699,2958,Argentina,AR,ARG,Río Negro
Choele Choel,Choele Choel,-39.26660968,-65.68331405,9895.5,Argentina,AR,ARG,Río Negro
San Francisco,San Francisco,-31.43003375,-62.08996749,43231,Argentina,AR,ARG,Córdoba
Alta Gracia,Alta Gracia,-31.65999388,-64.4299797,30593,Argentina,AR,ARG,Córdoba
Villa Maria,Villa Maria,-32.41002562,-63.26002527,76701,Argentina,AR,ARG,Córdoba
Bell Ville,Bell Ville,-32.60003986,-62.67995732,29605,Argentina,AR,ARG,Córdoba
Villa Rumipal,Villa Rumipal,-32.18332111,-64.48328394,1269,Argentina,AR,ARG,Córdoba
Villa Carlos Paz,Villa Carlos Paz,-31.42000853,-64.50000126,60256,Argentina,AR,ARG,Córdoba
Chumbicha,Chumbicha,-28.86662433,-66.23330632,2572,Argentina,AR,ARG,Catamarca
Tinogasta,Tinogasta,-28.06662148,-67.56658411,587,Argentina,AR,ARG,Catamarca
Abra Pampa,Abra Pampa,-22.7166638,-65.6999797,4480,Argentina,AR,ARG,Jujuy
Humahuaca,Humahuaca,-23.19999347,-65.34994938,11369,Argentina,AR,ARG,Jujuy
Susques,Susques,-23.41667275,-66.4833169,1093,Argentina,AR,ARG,Jujuy
Chepes,Chepes,-31.34998696,-66.5999506,6020,Argentina,AR,ARG,La Rioja
Yacuiba,Yacuiba,-22.03003904,-63.69999841,64811,Argentina,AR,ARG,Salta
Tartagal,Tartagal,-22.55000731,-63.81001754,59996.5,Argentina,AR,ARG,Salta
Joaquin V. Gonzalez,Joaquin V. Gonzalez,-25.08334105,-64.18335392,13376,Argentina,AR,ARG,Salta
General Guemes,General Guemes,-24.6666223,-65.04996769,19828,Argentina,AR,ARG,Salta
Trancas,Trancas,-26.21665688,-65.28331262,1599,Argentina,AR,ARG,Tucumán
Presidencia Roque Saenz Pena,Presidencia Roque Saenz Pena,-26.7900069,-60.45001591,75958,Argentina,AR,ARG,Chaco
Pampa del Infierno,Pampa del Infierno,-26.51658689,-61.16658716,2921,Argentina,AR,ARG,Chaco
Villa Angela,Villa Angela,-27.58329181,-60.7166663,30051,Argentina,AR,ARG,Chaco
Ingeniero Guillermo N. Juarez,Ingeniero Guillermo N. Juarez,-23.90000242,-61.84998214,6453,Argentina,AR,ARG,Formosa
Comandante Fontana,Comandante Fontana,-25.33329995,-59.68331852,4277,Argentina,AR,ARG,Formosa
Doctor Pedro P. Pena,Doctor Pedro P. Pena,-22.47998574,-62.29998051,6143,Argentina,AR,ARG,Formosa
San Lorenzo,San Lorenzo,-28.12000324,-58.76998926,25833.5,Argentina,AR,ARG,Corrientes
Corrientes,Corrientes,-27.48996417,-58.80998682,339945,Argentina,AR,ARG,Corrientes
Concepcion del Uruguay,Concepcion del Uruguay,-32.47999551,-58.23999577,48275,Argentina,AR,ARG,Entre Ríos
Victoria,Victoria,-32.61001341,-60.17998071,20032.5,Argentina,AR,ARG,Entre Ríos
Gualeguay,Gualeguay,-33.15003213,-59.34000615,25913,Argentina,AR,ARG,Entre Ríos
Parana,Parana,-31.73332273,-60.53334416,226852,Argentina,AR,ARG,Entre Ríos
Villa Constitucion,Villa Constitucion,-33.23002724,-60.35002202,30282.5,Argentina,AR,ARG,Santa Fe
Rafaela,Rafaela,-31.25004474,-61.49997766,69649,Argentina,AR,ARG,Santa Fe
Eldorado,Eldorado,-26.20001707,-54.59998539,17365,Argentina,AR,ARG,Misiones
Rodeo,Rodeo,-30.21558592,-69.1399506,701,Argentina,AR,ARG,San Juan
Las Plumas,Las Plumas,-43.41627887,-67.24998845,605,Argentina,AR,ARG,Chubut
Gastre,Gastre,-42.28296303,-69.23330408,557,Argentina,AR,ARG,Chubut
Telsen,Telsen,-42.39959674,-66.95000676,493,Argentina,AR,ARG,Chubut
Malargue,Malargue,-35.46611815,-69.58330855,11847,Argentina,AR,ARG,Mendoza
Tunuyan,Tunuyan,-33.56618244,-69.01667647,22834,Argentina,AR,ARG,Mendoza
La Paz,La Paz,-33.46613686,-67.54999597,4400,Argentina,AR,ARG,Mendoza
Chos Malal,Chos Malal,-37.38295205,-70.26657434,8556,Argentina,AR,ARG,Neuquén
Las Lajas,Las Lajas,-38.51626788,-70.36659408,1218,Argentina,AR,ARG,Neuquén
Zarate,Zarate,-34.08956134,-59.04002446,86192,Argentina,AR,ARG,Ciudad de Buenos Aires
Carhue,Carhue,-37.1828609,-62.73331323,7190,Argentina,AR,ARG,Ciudad de Buenos Aires
Darregueira,Darregueira,-37.69957355,-63.16659428,3412,Argentina,AR,ARG,Ciudad de Buenos Aires
Juarez,Juarez,-37.66551878,-59.80002975,10609,Argentina,AR,ARG,Ciudad de Buenos Aires
Mar de Ajo,Mar de Ajo,-36.71622272,-56.67660283,13610,Argentina,AR,ARG,Ciudad de Buenos Aires
Lobos,Lobos,-35.184895,-59.09467228,18278,Argentina,AR,ARG,Ciudad de Buenos Aires
Chascomus,Chascomus,-35.56621539,-58.01662439,21054,Argentina,AR,ARG,Ciudad de Buenos Aires
Junin,Junin,-34.58456989,-60.95887374,66141.5,Argentina,AR,ARG,Ciudad de Buenos Aires
La Plata,La Plata,-34.90961465,-57.95996118,440388.5,Argentina,AR,ARG,Ciudad de Buenos Aires
Pergamino,Pergamino,-33.89959878,-60.56998275,71448,Argentina,AR,ARG,Ciudad de Buenos Aires
Lujan,Lujan,-34.57960895,-59.10999435,69744.5,Argentina,AR,ARG,Ciudad de Buenos Aires
Azul,Azul,-36.7796297,-59.86999964,43407.5,Argentina,AR,ARG,Ciudad de Buenos Aires
Villalonga,Villalonga,-39.88285114,-62.58332239,2838,Argentina,AR,ARG,Ciudad de Buenos Aires
Victorica,Victorica,-36.21625324,-65.45002079,4458,Argentina,AR,ARG,La Pampa
General Pico,General Pico,-35.65959471,-63.77001998,46483,Argentina,AR,ARG,La Pampa
San Antonio Oeste,San Antonio Oeste,-40.73287677,-64.93328231,8492,Argentina,AR,ARG,Río Negro
Sierra Colorado,Sierra Colorado,-40.58286009,-67.79998071,1522,Argentina,AR,ARG,Río Negro
Mercedes,Mercedes,-33.68958576,-65.4699679,49345,Argentina,AR,ARG,San Luis
Rio Tercero,Rio Tercero,-32.1796004,-64.12002446,38049.5,Argentina,AR,ARG,Córdoba
Belen,Belen,-27.64959267,-67.03328333,11359,Argentina,AR,ARG,Catamarca
Rinconada,Rinconada,-22.43290851,-66.16659204,6209.5,Argentina,AR,ARG,Jujuy
San Pedro,San Pedro,-24.21962116,-64.87000452,55249,Argentina,AR,ARG,Jujuy
Libertador General San Martin,Libertador General San Martin,-23.81954222,-64.78998356,47559,Argentina,AR,ARG,Jujuy
Chilecito,Chilecito,-29.16552081,-67.49999903,20343,Argentina,AR,ARG,La Rioja
Chamical,Chamical,-30.34958291,-66.3166604,8989,Argentina,AR,ARG,La Rioja
Los Blancos,Los Blancos,-23.59960732,-62.60003972,1145,Argentina,AR,ARG,Salta
Cafayate,Cafayate,-26.08291828,-65.96660425,9478,Argentina,AR,ARG,Salta
Cerrillos,Cerrillos,-24.89963133,-65.48330042,11498,Argentina,AR,ARG,Salta
San Antonio de los Cobres,San Antonio de los Cobres,-24.18293089,-66.35001754,4000,Argentina,AR,ARG,Salta
Anatuya,Anatuya,-28.46613198,-62.83330713,14133,Argentina,AR,ARG,Santiago del Estero
Frias,Frias,-28.64958331,-65.14998743,13594,Argentina,AR,ARG,Santiago del Estero
Monte Quemado,Monte Quemado,-25.79962807,-62.86658675,11387,Argentina,AR,ARG,Santiago del Estero
Juan Jose Castelli,Juan Jose Castelli,-25.9495414,-60.61664657,9421,Argentina,AR,ARG,Chaco
Charata,Charata,-27.21628579,-61.19999597,18297,Argentina,AR,ARG,Chaco
Las Lomitas,Las Lomitas,-24.69959186,-60.60000676,7683,Argentina,AR,ARG,Formosa
Mercedes,Mercedes,-29.1795768,-58.0799797,22872.5,Argentina,AR,ARG,Corrientes
Concordia,Concordia,-31.38957111,-58.02998275,132760.5,Argentina,AR,ARG,Entre Ríos
Sunchales,Sunchales,-30.93290648,-61.56661442,12655,Argentina,AR,ARG,Santa Fe
San Justo,San Justo,-30.78288979,-60.58328943,9607,Argentina,AR,ARG,Santa Fe
Vera,Vera,-29.4661743,-60.21659347,9979,Argentina,AR,ARG,Santa Fe
Reconquista,Reconquista,-29.13952757,-59.65001306,86640.5,Argentina,AR,ARG,Santa Fe
Venado Tuerto,Venado Tuerto,-33.74958209,-61.97000065,52079,Argentina,AR,ARG,Santa Fe
Esquel,Esquel,-42.90003131,-71.31661361,20048,Argentina,AR,ARG,Chubut
Zapala,Zapala,-38.90001707,-70.06666406,19152,Argentina,AR,ARG,Neuquén
Olavarria,Olavarria,-36.90003579,-60.3299974,65059,Argentina,AR,ARG,Ciudad de Buenos Aires
Tandil,Tandil,-37.32001015,-59.15004358,84799.5,Argentina,AR,ARG,Ciudad de Buenos Aires
Viedma,Viedma,-40.79995278,-63.0000153,54031,Argentina,AR,ARG,Ciudad de Buenos Aires
San Luis,San Luis,-33.29999713,-66.35001754,308146,Argentina,AR,ARG,San Luis
Rio Cuarto,Rio Cuarto,-33.13003335,-64.34998458,135959.5,Argentina,AR,ARG,Córdoba
San Salvador de Jujuy,San Salvador de Jujuy,-24.1833443,-65.30002995,258739,Argentina,AR,ARG,Jujuy
San Ramon de la Nueva Oran,San Ramon de la Nueva Oran,-23.13999713,-64.32001225,69461.5,Argentina,AR,ARG,Salta
Goya,Goya,-29.13999266,-59.26998458,71274.5,Argentina,AR,ARG,Corrientes
Puerto San Julian,Puerto San Julian,-49.30000242,-67.71665247,2347,Argentina,AR,ARG,Santa Cruz
Perito Moreno,Perito Moreno,-46.60001219,-70.93335535,3766,Argentina,AR,ARG,Santa Cruz
Rio Grande,Rio Grande,-53.79144552,-67.6989952,31095,Argentina,AR,ARG,Tierra del Fuego
Ushuaia,Ushuaia,-54.79000324,-68.31000126,50483.5,Argentina,AR,ARG,Tierra del Fuego
Sarmiento,Sarmiento,-45.60002155,-69.08331323,5185,Argentina,AR,ARG,Chubut
San Rafael,San Rafael,-34.60002114,-68.33333317,79523.5,Argentina,AR,ARG,Mendoza
Necochea,Necochea,-38.55998615,-58.74999048,70562,Argentina,AR,ARG,Ciudad de Buenos Aires
Rio Colorado,Rio Colorado,-38.96657632,-64.08328251,11499,Argentina,AR,ARG,La Pampa
Catamarca,Catamarca,-28.47000771,-65.78000065,162586,Argentina,AR,ARG,Catamarca
La Rioja,La Rioja,-29.40995034,-66.84996118,147130,Argentina,AR,ARG,La Rioja
Santiago del Estero,Santiago del Estero,-27.78333128,-64.26665633,317549.5,Argentina,AR,ARG,Santiago del Estero
Resistencia,Resistencia,-27.45999184,-58.99002751,368455.5,Argentina,AR,ARG,Chaco
Gualeguaychu,Gualeguaychu,-33.02001422,-58.52000452,55860.5,Argentina,AR,ARG,Entre Ríos
El Calafate,El Calafate,-50.33332436,-72.30001612,6329,Argentina,AR,ARG,Santa Cruz
San Juan,San Juan,-31.55002643,-68.51998845,433892,Argentina,AR,ARG,San Juan
Rawson,Rawson,-43.3000069,-65.09999048,25062.5,Argentina,AR,ARG,Chubut
Neuquen,Neuquen,-38.95003986,-68.05999068,213823.5,Argentina,AR,ARG,Neuquén
Santa Rosa,Santa Rosa,-36.6200012,-64.29998763,97693.5,Argentina,AR,ARG,La Pampa
San Carlos de Bariloche,San Carlos de Bariloche,-41.14995726,-71.29999964,91953,Argentina,AR,ARG,Río Negro
Salta,Salta,-24.78335936,-65.41663782,484646,Argentina,AR,ARG,Salta
Tucumán,San Miguel de Tucuman,-26.81600014,-65.21662419,678803.5,Argentina,AR,ARG,Tucumán
Formosa,Formosa,-26.17283527,-58.1828158,202272,Argentina,AR,ARG,Formosa
Santa Fe,Santa Fe,-31.62387205,-60.69000126,393504,Argentina,AR,ARG,Santa Fe
Rosario,Rosario,-32.95112954,-60.66630762,1094784.5,Argentina,AR,ARG,Santa Fe
Puerto Deseado,Puerto Deseado,-47.75001951,-65.89996749,3305,Argentina,AR,ARG,Santa Cruz
Rio Gallegos,Rio Gallegos,-51.63329669,-69.21658675,77183,Argentina,AR,ARG,Santa Cruz
Comodoro Rivadavia,Comodoro Rivadavia,-45.87003091,-67.49999903,123291,Argentina,AR,ARG,Chubut
Mendoza,Mendoza,-32.88333006,-68.81661117,827815,Argentina,AR,ARG,Mendoza
Bahia Blanca,Bahia Blanca,-38.74002684,-62.2650214,279041,Argentina,AR,ARG,Ciudad de Buenos Aires
Mar del Plata,Mar del Plata,-38.00002033,-57.57998438,554916,Argentina,AR,ARG,Ciudad de Buenos Aires
Córdoba,Cordoba,-31.39995807,-64.18229456,1374467.5,Argentina,AR,ARG,Córdoba
Posadas,Posadas,-27.3578321,-55.88510735,334589.5,Argentina,AR,ARG,Misiones
Buenos Aires,Buenos Aires,-34.60250161,-58.39753137,11862073,Argentina,AR,ARG,Ciudad de Buenos Aires
Ashtarak,Ashtarak,40.3016667,44.3591667,18779,Armenia,AM,ARM,Aragatsotn
Ijevan,Ijevan,40.8755556,45.1491667,14737,Armenia,AM,ARM,Tavush
Artashat,Artashat,39.9538889,44.5505556,20562,Armenia,AM,ARM,Ararat
Gavarr,Gavarr,40.3588889,45.1266667,21680,Armenia,AM,ARM,Gegharkunik
Yeghegnadzor,Yeghegnadzor,39.7611111,45.3333333,8200,Armenia,AM,ARM,Vayots Dzor
Gyumri,Gyumri,40.78943402,43.84749385,140277.5,Armenia,AM,ARM,Shirak
Vanadzor,Vanadzor,40.81276593,44.48828162,89295,Armenia,AM,ARM,Lori
Yerevan,Yerevan,40.18115074,44.51355139,1097742.5,Armenia,AM,ARM,Erevan
Oranjestad,Oranjestad,12.53038373,-70.02899195,50887.5,Aruba,AW,ABW,
Central Coast,Central Coast,-33.42004148,151.3000048,3026,Australia,AU,AUS,New South Wales
Sunshine Coast,Sunshine Coast,-26.67998777,153.0500272,57215.5,Australia,AU,AUS,Queensland
Bourke,Bourke,-30.1,145.9333333,2475,Australia,AU,AUS,New South Wales
Pine Creek,Pine Creek,-13.81617348,131.816698,505,Australia,AU,AUS,Northern Territory
Adelaide River,Adelaide River,-13.2495414,131.0999975,237,Australia,AU,AUS,Northern Territory
McMinns Lagoon,McMinns Lagoon,-12.53289264,131.0500264,5025,Australia,AU,AUS,Northern Territory
Newcastle Waters,Newcastle Waters,-17.55279295,133.4672432,10,Australia,AU,AUS,Northern Territory
Ravensthorpe,Ravensthorpe,-33.58287392,120.0333345,639,Australia,AU,AUS,Western Australia
Wagin,Wagin,-33.29958372,117.3499841,1037.5,Australia,AU,AUS,Western Australia
Roebourne,Roebourne,-20.7829317,117.1333048,11281.5,Australia,AU,AUS,Western Australia
Pannawonica,Pannawonica,-21.63657469,116.3250337,686,Australia,AU,AUS,Western Australia
Tom Price,Tom Price,-22.69346108,117.7930578,1822,Australia,AU,AUS,Western Australia
Kalbarri,Kalbarri,-27.66618081,114.1666642,1537,Australia,AU,AUS,Western Australia
Mount Magnet,Mount Magnet,-28.06620807,117.8166739,424,Australia,AU,AUS,Western Australia
Morawa,Morawa,-29.21626707,116.0000406,259,Australia,AU,AUS,Western Australia
Port Denison,Port Denison,-29.28282632,114.9166442,1213,Australia,AU,AUS,Western Australia
Merredin,Merredin,-31.48284707,118.2666723,2054,Australia,AU,AUS,Western Australia
Mount Barker,Mount Barker,-34.632784,117.6666056,1771.5,Australia,AU,AUS,Western Australia
Katanning,Katanning,-33.69955931,117.5500752,3140,Australia,AU,AUS,Western Australia
Narrogin,Narrogin,-32.93288776,117.1666361,3995,Australia,AU,AUS,Western Australia
Gingin,Gingin,-31.34957355,115.9000468,1446,Australia,AU,AUS,Western Australia
Bunbury,Bunbury,-33.34428384,115.6502429,26683.5,Australia,AU,AUS,Western Australia
Kwinana,Kwinana,-32.23939004,115.7702356,18817.5,Australia,AU,AUS,Western Australia
Southern Cross,Southern Cross,-31.216145,119.3166857,187,Australia,AU,AUS,Western Australia
Kaltukatjara,Kaltukatjara,-25.78841429,128.9973352,355,Australia,AU,AUS,Northern Territory
Queanbeyan,Queanbeyan,-35.3546004,149.2113468,32408,Australia,AU,AUS,Australian Capital Territory
Tweed Heads,Tweed Heads,-28.1825834,153.5466377,33065,Australia,AU,AUS,New South Wales
Ivanhoe,Ivanhoe,-32.89960814,144.3000187,265,Australia,AU,AUS,New South Wales
Wilcannia,Wilcannia,-31.56620115,143.3833304,442,Australia,AU,AUS,New South Wales
Merimbula,Merimbula,-36.89962238,149.9000386,3607.5,Australia,AU,AUS,New South Wales
Echuca,Echuca,-36.12959186,144.750017,13460,Australia,AU,AUS,New South Wales
Deniliquin,Deniliquin,-35.5295768,144.9500048,6019.5,Australia,AU,AUS,New South Wales
Nowra,Nowra,-34.88284625,150.6000476,61036.5,Australia,AU,AUS,New South Wales
Ulladulla,Ulladulla,-35.34953611,150.4700297,6811,Australia,AU,AUS,New South Wales
Batemans Bay,Batemans Bay,-35.68961871,150.2073067,5604,Australia,AU,AUS,New South Wales
Cooma,Cooma,-36.23955931,149.1200345,5661.5,Australia,AU,AUS,New South Wales
Tumut,Tumut,-35.30959023,148.2200378,4873,Australia,AU,AUS,New South Wales
Leeton,Leeton,-34.54493406,146.3973067,6277,Australia,AU,AUS,New South Wales
Young,Young,-34.30959959,148.2900077,6422,Australia,AU,AUS,New South Wales
Cowra,Cowra,-33.82962889,148.6800097,5729.5,Australia,AU,AUS,New South Wales
Forbes,Forbes,-33.38960407,148.0199983,4076.5,Australia,AU,AUS,New South Wales
Goulburn,Goulburn,-34.74957273,149.7101794,16444,Australia,AU,AUS,New South Wales
Kiama,Kiama,-34.70957518,150.8400329,10379,Australia,AU,AUS,New South Wales
Katoomba,Katoomba,-33.70694904,150.320013,20334.5,Australia,AU,AUS,New South Wales
Richmond,Richmond,-33.59951373,150.7399873,9720,Australia,AU,AUS,New South Wales
Lithgow,Lithgow,-33.49610919,150.152788,10338,Australia,AU,AUS,New South Wales
Parkes,Parkes,-33.12956826,148.170015,7160,Australia,AU,AUS,New South Wales
Bathurst,Bathurst,-33.41962807,149.5700329,6111,Australia,AU,AUS,New South Wales
Maitland,Maitland,-32.72096271,151.555028,10026.5,Australia,AU,AUS,New South Wales
Singleton,Singleton,-32.56949909,151.1600134,8340.5,Australia,AU,AUS,New South Wales
Mudgee,Mudgee,-32.58960122,149.5801098,5391,Australia,AU,AUS,New South Wales
Muswellbrook,Muswellbrook,-32.26956907,150.890004,8171,Australia,AU,AUS,New South Wales
Taree,Taree,-31.89760211,152.4618461,30131.5,Australia,AU,AUS,New South Wales
Kempsey,Kempsey,-31.08736733,152.8220308,10681,Australia,AU,AUS,New South Wales
Gunnedah,Gunnedah,-30.9870117,150.2622904,6204,Australia,AU,AUS,New South Wales
Coffs Harbour,Coffs Harbour,-30.3070532,153.1122973,48961,Australia,AU,AUS,New South Wales
Narrabri,Narrabri,-30.33190957,149.7874357,6105.5,Australia,AU,AUS,New South Wales
Inverell,Inverell,-29.7667761,151.1125744,6845.5,Australia,AU,AUS,New South Wales
Yamba,Yamba,-29.42299136,153.353312,1806,Australia,AU,AUS,New South Wales
Ballina,Ballina,-28.86135333,153.5679801,13997.5,Australia,AU,AUS,New South Wales
Wagga Wagga,Wagga Wagga,-35.12215981,147.3399882,45549,Australia,AU,AUS,New South Wales
Scone,Scone,-32.07960651,150.8501098,4624,Australia,AU,AUS,New South Wales
Byron Bay,Byron Bay,-28.65650796,153.6128869,5244.5,Australia,AU,AUS,New South Wales
Berri,Berri,-34.28293455,140.6000378,4523,Australia,AU,AUS,South Australia
Peterborough,Peterborough,-32.96616738,138.8333239,1351,Australia,AU,AUS,South Australia
Wallaroo,Wallaroo,-33.9328784,137.6332938,2442,Australia,AU,AUS,South Australia
Clare,Clare,-33.8328845,138.6000048,2729,Australia,AU,AUS,South Australia
Meningie,Meningie,-35.69954059,139.3333451,850,Australia,AU,AUS,South Australia
Kingston South East,Kingston South East,-36.83280475,139.8500577,206,Australia,AU,AUS,South Australia
Bordertown,Bordertown,-36.31619546,140.7666426,1976,Australia,AU,AUS,South Australia
Penola,Penola,-37.38295205,140.8166654,1513,Australia,AU,AUS,South Australia
Kingoonya,Kingoonya,-30.89957518,135.2999996,50,Australia,AU,AUS,South Australia
Kimba,Kimba,-33.14961871,136.4333671,636,Australia,AU,AUS,South Australia
Streaky Bay,Streaky Bay,-32.81187176,134.2149296,614.5,Australia,AU,AUS,South Australia
Cowell,Cowell,-33.68286782,136.9166451,537,Australia,AU,AUS,South Australia
Tumby Bay,Tumby Bay,-34.38292845,136.0833109,1791,Australia,AU,AUS,South Australia
Andamooka,Andamooka,-30.43097329,137.1655704,528,Australia,AU,AUS,South Australia
Woomera,Woomera,-31.14958576,136.8000114,450,Australia,AU,AUS,South Australia
Port Pirie,Port Pirie,-33.19106321,137.9900162,12417,Australia,AU,AUS,South Australia
Gawler,Gawler,-34.60735919,138.7263537,15542.5,Australia,AU,AUS,South Australia
Murray Bridge,Murray Bridge,-35.12960122,139.2600162,14185.5,Australia,AU,AUS,South Australia
Victor Harbor,Victor Harbor,-35.55960081,138.6173164,7489,Australia,AU,AUS,South Australia
Hamilton,Hamilton,-37.73119953,142.0234135,6992.5,Australia,AU,AUS,Victoria
Ouyen,Ouyen,-35.06619424,142.3166772,912,Australia,AU,AUS,Victoria
Colac,Colac,-38.33953449,143.5800109,7450,Australia,AU,AUS,Victoria
Stawell,Stawell,-37.05961261,142.7600093,4596,Australia,AU,AUS,Victoria
Horsham,Horsham,-36.70960814,142.1900183,11985.5,Australia,AU,AUS,Victoria
Ararat,Ararat,-37.27954751,142.9099743,5464,Australia,AU,AUS,Victoria
Maryborough,Maryborough,-37.04958738,143.729976,5838.5,Australia,AU,AUS,Victoria
Bairnsdale,Bairnsdale,-37.82959145,147.6099975,9427,Australia,AU,AUS,Victoria
Sale,Sale,-38.10957436,147.0600052,17701.5,Australia,AU,AUS,Victoria
Traralgon,Traralgon,-38.19959471,146.5300118,16982.5,Australia,AU,AUS,Victoria
Wonthaggi,Wonthaggi,-38.60949217,145.5900175,4471.5,Australia,AU,AUS,Victoria
Cranbourne,Cranbourne,-38.09960081,145.2833695,249955,Australia,AU,AUS,Victoria
Ballarat,Ballarat,-37.55958209,143.8400468,73404,Australia,AU,AUS,Victoria
Melton,Melton,-37.68954832,144.570028,29750,Australia,AU,AUS,Victoria
Seymour,Seymour,-37.03423948,145.1273067,3693,Australia,AU,AUS,Victoria
Shepparton,Shepparton,-36.37458982,145.3913732,33430.5,Australia,AU,AUS,Victoria
Cobram,Cobram,-35.91963051,145.6500138,4659,Australia,AU,AUS,Victoria
Swan Hill,Swan Hill,-35.33961424,143.5400134,9073,Australia,AU,AUS,Victoria
Sunbury,Sunbury,-37.56960732,144.7100195,18677.5,Australia,AU,AUS,Victoria
Proserpine,Proserpine,-20.41623574,148.5834781,3976,Australia,AU,AUS,Queensland
Theodore,Theodore,-24.94949909,150.0833349,246,Australia,AU,AUS,Queensland
Eidsvold,Eidsvold,-25.36621784,151.1333483,459,Australia,AU,AUS,Queensland
Barcaldine,Barcaldine,-23.56617267,145.2833695,1068,Australia,AU,AUS,Queensland
Winton,Winton,-22.39962889,143.0332743,1157,Australia,AU,AUS,Queensland
Longreach,Longreach,-23.44959064,144.2500476,2894,Australia,AU,AUS,Queensland
Caboolture,Caboolture,-27.08296059,152.9499816,26495.5,Australia,AU,AUS,Queensland
Warwick,Warwick,-28.22924721,152.0203226,10024,Australia,AU,AUS,Queensland
Kingaroy,Kingaroy,-26.53896279,151.840592,7494.5,Australia,AU,AUS,Queensland
Dalby,Dalby,-27.19385822,151.2657434,9818.5,Australia,AU,AUS,Queensland
Bongaree,Bongaree,-27.07872313,153.1508996,10327.5,Australia,AU,AUS,Queensland
Gympie,Gympie,-26.18859658,152.6709289,11338,Australia,AU,AUS,Queensland
Ingham,Ingham,-18.64957355,146.1666231,5996.5,Australia,AU,AUS,Queensland
Birdsville,Birdsville,-25.89962197,139.3666247,283,Australia,AU,AUS,Queensland
Bedourie,Bedourie,-24.34958738,139.4666186,142,Australia,AU,AUS,Queensland
Boulia,Boulia,-22.89959837,139.9000288,402.5,Australia,AU,AUS,Queensland
Richmond,Richmond,-20.71626911,143.1333199,296,Australia,AU,AUS,Queensland
Burketown,Burketown,-17.71609048,139.5666125,186.5,Australia,AU,AUS,Queensland
Hervey Bay,Hervey Bay,-25.28870319,152.8409444,25114,Australia,AU,AUS,Queensland
Biloela,Biloela,-24.39356403,150.4960746,4366.5,Australia,AU,AUS,Queensland
Yeppoon,Yeppoon,-23.13291746,150.7567305,6450.5,Australia,AU,AUS,Queensland
Emerald,Emerald,-23.51222247,148.1673278,7489,Australia,AU,AUS,Queensland
Moranbah,Moranbah,-22.00156533,148.0380334,7357,Australia,AU,AUS,Queensland
Charters Towers,Charters Towers,-20.08090737,146.2587105,8369.5,Australia,AU,AUS,Queensland
Ayr,Ayr,-19.57024087,147.3994677,7166,Australia,AU,AUS,Queensland
Atherton,Atherton,-17.27027789,145.469353,6132.5,Australia,AU,AUS,Queensland
Port Douglas,Port Douglas,-16.48458812,145.4587219,2004.5,Australia,AU,AUS,Queensland
Smithton,Smithton,-40.83292234,145.1166613,3351,Australia,AU,AUS,Tasmania
Scottsdale,Scottsdale,-41.14949217,147.5166699,1683.5,Australia,AU,AUS,Tasmania
Bicheno,Bicheno,-41.87838825,148.2886124,177,Australia,AU,AUS,Tasmania
Oatlands,Oatlands,-42.29960285,147.3666015,1157,Australia,AU,AUS,Tasmania
Queenstown,Queenstown,-42.08292356,145.5500199,1658,Australia,AU,AUS,Tasmania
Kingston,Kingston,-42.99113686,147.3084139,12652,Australia,AU,AUS,Tasmania
Tennant Creek,Tennant Creek,-19.65002928,134.200015,3490.5,Australia,AU,AUS,Northern Territory
Yulara,Yulara,-25.24054075,130.9888932,930,Australia,AU,AUS,Northern Territory
Erldunda,Erldunda,-25.23330605,133.1999727,10,Australia,AU,AUS,Northern Territory
Norseman,Norseman,-32.20001259,121.7666137,1004,Australia,AU,AUS,Western Australia
Halls Creek,Halls Creek,-18.26670286,127.7667126,1209,Australia,AU,AUS,Western Australia
Kununurra,Kununurra,-15.76659707,128.7333203,5229.5,Australia,AU,AUS,Western Australia
Derby,Derby,-17.29999184,123.9666345,3199,Australia,AU,AUS,Western Australia
Onslow,Onslow,-21.65759354,115.0962959,573,Australia,AU,AUS,Western Australia
Exmouth,Exmouth,-21.93109987,114.1233469,1085,Australia,AU,AUS,Western Australia
Carnarvon,Carnarvon,-24.89983803,113.6501066,7392,Australia,AU,AUS,Western Australia
Newman,Newman,-23.36659829,119.7333011,2678,Australia,AU,AUS,Western Australia
Meekatharra,Meekatharra,-26.59999266,118.4832999,654,Australia,AU,AUS,Western Australia
Three Springs,Three Springs,-29.53330198,115.7499784,190,Australia,AU,AUS,Western Australia
Manjimup,Manjimup,-34.23332518,116.1500057,4016.5,Australia,AU,AUS,Western Australia
Northam,Northam,-31.65658323,116.6533858,5330,Australia,AU,AUS,Western Australia
Esperance,Esperance,-33.857307,121.8888973,7205,Australia,AU,AUS,Western Australia
Leonara,Leonara,-28.88150714,121.3280358,227,Australia,AU,AUS,Western Australia
Laverton,Laverton,-28.62700071,122.4040425,316,Australia,AU,AUS,Western Australia
Wyndham,Wyndham,-15.37395953,128.3600614,734.5,Australia,AU,AUS,Western Australia
Albury,Albury,-36.06003538,146.9200138,68534,Australia,AU,AUS,New South Wales
Forster-Tuncurry,Forster-Tuncurry,-32.19313963,152.5266483,13275.5,Australia,AU,AUS,New South Wales
Port Macquarie,Port Macquarie,-31.44501992,152.9186657,42070,Australia,AU,AUS,New South Wales
Tamworth,Tamworth,-31.10261188,150.9171342,35080,Australia,AU,AUS,New South Wales
Grafton,Grafton,-29.71199909,152.9376827,7871.5,Australia,AU,AUS,New South Wales
Moree,Moree,-29.469895,149.8300687,8062,Australia,AU,AUS,New South Wales
Goondiwindi,Goondiwindi,-28.55480874,150.325284,4251,Australia,AU,AUS,New South Wales
Lismore,Lismore,-28.81665322,153.2931132,28065.5,Australia,AU,AUS,New South Wales
Wollongong,Wollongong,-34.41538125,150.890004,201319.5,Australia,AU,AUS,New South Wales
Ceduna,Ceduna,-32.09913464,133.6622674,1252.5,Australia,AU,AUS,South Australia
Mount Gambier,Mount Gambier,-37.83134845,140.7650406,21818.5,Australia,AU,AUS,South Australia
Port Augusta,Port Augusta,-32.49002073,137.7700297,11186.5,Australia,AU,AUS,South Australia
Warrnambool,Warrnambool,-38.37999713,142.4700012,29882,Australia,AU,AUS,Victoria
Mildura,Mildura,-34.18500771,142.1513643,33324.5,Australia,AU,AUS,Victoria
Geelong,Geelong,-38.16749505,144.3956335,149336,Australia,AU,AUS,Victoria
Camooweal,Camooweal,-19.91673134,138.1166752,187,Australia,AU,AUS,Queensland
Quilpie,Quilpie,-26.61663247,144.2500476,560,Australia,AU,AUS,Queensland
Charleville,Charleville,-26.40000486,146.2500288,1900,Australia,AU,AUS,Queensland
Hughenden,Hughenden,-20.85000771,144.2000248,421,Australia,AU,AUS,Queensland
Caloundra,Caloundra,-26.80003213,153.1333296,33737,Australia,AU,AUS,Queensland
Roma,Roma,-26.55937498,148.7907006,4560.5,Australia,AU,AUS,Queensland
Toowoomba,Toowoomba,-27.56453327,151.9555204,86711,Australia,AU,AUS,Queensland
Georgetown,Georgetown,-18.30003416,143.5332955,818,Australia,AU,AUS,Queensland
Thargomindah,Thargomindah,-27.99995888,143.816689,203,Australia,AU,AUS,Queensland
Weipa,Weipa,-12.66663125,141.8666272,2830,Australia,AU,AUS,Queensland
Karumba,Karumba,-17.48333982,140.8334086,173,Australia,AU,AUS,Queensland
Cloncurry,Cloncurry,-20.69999103,140.4999922,1202,Australia,AU,AUS,Queensland
Maryborough,Maryborough,-25.54910073,152.7209,18920.5,Australia,AU,AUS,Queensland
Bundaberg,Bundaberg,-24.87906411,152.3508968,46062,Australia,AU,AUS,Queensland
Gladstone,Gladstone,-23.8533386,151.2467264,29055,Australia,AU,AUS,Queensland
Bowen,Bowen,-20.00132566,148.208669,10983,Australia,AU,AUS,Queensland
Innisfail,Innisfail,-17.53134723,146.0386722,9707,Australia,AU,AUS,Queensland
Mackay,Mackay,-21.14389158,149.1500069,66053.5,Australia,AU,AUS,Queensland
Burnie,Burnie,-41.06660317,145.9166642,18490.5,Australia,AU,AUS,Tasmania
Launceston,Launceston,-41.44983559,147.1301818,65106.5,Australia,AU,AUS,Tasmania
Katherine,Katherine,-14.46662474,132.266593,8171.5,Australia,AU,AUS,Northern Territory
Busselton,Busselton,-33.65640949,115.3486592,9595,Australia,AU,AUS,Western Australia
Mandurah,Mandurah,-32.52348259,115.7470567,52866,Australia,AU,AUS,Western Australia
Broome,Broome,-17.96177069,122.2307681,11890.5,Australia,AU,AUS,Western Australia
Kalgoorlie,Kalgoorlie,-30.73539915,121.4600175,32058,Australia,AU,AUS,Western Australia
Albany,Albany,-35.0169466,117.8916048,25179,Australia,AU,AUS,Western Australia
Port Hedland,Port Hedland,-20.31040241,118.6060315,8997,Australia,AU,AUS,Western Australia
Karratha,Karratha,-20.73037677,116.8700134,16636,Australia,AU,AUS,Western Australia
Geraldton,Geraldton,-28.76663043,114.5999711,27065,Australia,AU,AUS,Western Australia
Griffith,Griffith,-34.29001422,146.0400158,11664.5,Australia,AU,AUS,New South Wales
Orange,Orange,-33.27999835,149.0999841,36708,Australia,AU,AUS,New South Wales
Dubbo,Dubbo,-32.25995726,148.5973274,30467.5,Australia,AU,AUS,New South Wales
Armidale,Armidale,-30.51231199,151.667476,21793.5,Australia,AU,AUS,New South Wales
Broken Hill,Broken Hill,-31.94995034,141.4331136,17232.5,Australia,AU,AUS,New South Wales
Port Lincoln,Port Lincoln,-34.73324298,135.86658,12438.5,Australia,AU,AUS,South Australia
Whyalla,Whyalla,-33.02502684,137.5614119,21102,Australia,AU,AUS,South Australia
Portland,Portland,-38.33999957,141.5900032,10324.5,Australia,AU,AUS,Victoria
Bendigo,Bendigo,-36.75999266,144.2800199,68790,Australia,AU,AUS,Victoria
Wangaratta,Wangaratta,-36.36001707,146.3,11369.5,Australia,AU,AUS,Victoria
Windorah,Windorah,-25.43324217,142.6501969,158,Australia,AU,AUS,Queensland
Mount Isa,Mount Isa,-20.72386554,139.490028,27596,Australia,AU,AUS,Queensland
Rockhampton,Rockhampton,-23.36391111,150.5200008,59024.5,Australia,AU,AUS,Queensland
Cairns,Cairns,-16.88783986,145.7633309,132107,Australia,AU,AUS,Queensland
Gold Coast,Gold Coast,-28.08150429,153.4482458,429954.5,Australia,AU,AUS,Queensland
Devonport,Devonport,-41.19266757,146.3311017,17932.5,Australia,AU,AUS,Tasmania
Darwin,Darwin,-12.42535398,130.8500386,82973,Australia,AU,AUS,Northern Territory
Alice Springs,Alice Springs,-23.70099648,133.8800345,26949,Australia,AU,AUS,Northern Territory
Canberra,Canberra,-35.28302855,149.1290262,280866,Australia,AU,AUS,Australian Capital Territory
Newcastle,Newcastle,-32.84534788,151.8150122,816285.5,Australia,AU,AUS,New South Wales
Adelaide,Adelaide,-34.93498777,138.6000048,990677,Australia,AU,AUS,South Australia
Townsville,Townsville,-19.24995034,146.7699971,129212,Australia,AU,AUS,Queensland
Brisbane,Brisbane,-27.45503091,153.0350927,1393176.5,Australia,AU,AUS,Queensland
Hobart,Hobart,-42.85000853,147.2950297,64285,Australia,AU,AUS,Tasmania
Perth,Perth,-31.95501463,115.8399987,1206108,Australia,AU,AUS,Western Australia
Melbourne,Melbourne,-37.82003131,144.9750162,2131812.5,Australia,AU,AUS,Victoria
Sydney,Sydney,-33.92001097,151.1851798,4135711,Australia,AU,AUS,New South Wales
Bregenz,Bregenz,47.51669707,9.766701588,26928,Austria,AT,AUT,Vorarlberg
Eisenstadt,Eisenstadt,47.83329908,16.53329747,13165,Austria,AT,AUT,Burgenland
Wiener Neustadt,Wiener Neustadt,47.81598187,16.24995357,60621.5,Austria,AT,AUT,Niederösterreich
Graz,Graz,47.0777582,15.41000484,242780,Austria,AT,AUT,Steiermark
Klagenfurt,Klagenfurt,46.62034426,14.3100203,88588,Austria,AT,AUT,Kärnten
Linz,Linz,48.31923281,14.28878129,265161.5,Austria,AT,AUT,Oberösterreich
Passau,Passau,48.56704714,13.46660925,50000,Austria,AT,AUT,Oberösterreich
Salzburg,Salzburg,47.81047833,13.0400203,178274,Austria,AT,AUT,Salzburg
Innsbruck,Innsbruck,47.28040733,11.4099906,133840.5,Austria,AT,AUT,Tirol
Vienna,Vienna,48.20001528,16.36663896,2065500,Austria,AT,AUT,Wien
Gadabay,Gadabay,40.5655556,45.8161111,8657,Azerbaijan,AZ,AZE,Gadabay
Goranboy,Goranboy,40.6102778,46.7897222,7333,Azerbaijan,AZ,AZE,Goranboy
Tovuz,Tovuz,40.9922222,45.6288889,12626,Azerbaijan,AZ,AZE,Tovuz
Agdam,Agdam,40.9052778,45.5563889,0,Azerbaijan,AZ,AZE,Tovuz
Qabala,Qabala,40.9813889,47.8458333,11867,Azerbaijan,AZ,AZE,Qabala
Oguz,Oguz,41.0708333,47.4583333,6876,Azerbaijan,AZ,AZE,Oguz
Ganca,Ganca,40.68499595,46.35002844,301699.5,Azerbaijan,AZ,AZE,Ganca
Yevlax,Yevlax,40.61719647,47.15003129,50014,Azerbaijan,AZ,AZE,Yevlax
Sumqayt,Sumqayt,40.58001528,49.62998328,272154.5,Azerbaijan,AZ,AZE,Sumqayit
Ali Bayramli,Ali Bayramli,39.93230288,48.92025915,70452,Azerbaijan,AZ,AZE,?li Bayramli
Goycay,Goycay,40.65342165,47.74058956,35031.5,Azerbaijan,AZ,AZE,Göyçay
Lankaran,Lankaran,38.7540027,48.85106441,60180,Azerbaijan,AZ,AZE,Astara
Saki,Saki,41.19232932,47.17054683,63579.5,Azerbaijan,AZ,AZE,S?ki
Stepanakert,Stepanakert,39.81564333,46.75196773,57473,Azerbaijan,AZ,AZE,Xocali
Kapan,Kapan,39.20152061,46.41498572,37724,Azerbaijan,AZ,AZE,Z?ngilan
Naxcivan,Naxcivan,39.2092204,45.41220455,79771,Azerbaijan,AZ,AZE,Naxçivan
Baku,Baku,40.39527203,49.86221716,2007150,Azerbaijan,AZ,AZE,Baki
Manama,Manama,26.23613629,50.58305172,360697,Bahrain,BH,BHR,
Tangail,Tangail,24.24997845,89.92003048,180144,Bangladesh,BD,BGD,Dhaka
Sylhet,Sylhet,24.90355613,91.87360632,237000,Bangladesh,BD,BGD,Sylhet
Mymensingh,Mymensingh,24.75041302,90.3800024,330126,Bangladesh,BD,BGD,Dhaka
Jamalpur,Jamalpur,24.90042971,89.95000281,167900,Bangladesh,BD,BGD,Dhaka
Narayanganj,Narayanganj,23.62040448,90.49999508,223622,Bangladesh,BD,BGD,Dhaka
Jessore,Jessore,23.17043194,89.19997107,243987,Bangladesh,BD,BGD,Khulna
Barisal,Barisal,22.70040895,90.37498979,202242,Bangladesh,BD,BGD,Barisal
Comilla,Comilla,23.47041363,91.16998002,389411,Bangladesh,BD,BGD,Chittagong
Pabna,Pabna,24.00038129,89.24999385,137888,Bangladesh,BD,BGD,Rajshahi
Nawabganj,Nawabganj,24.58039756,88.34999711,142361,Bangladesh,BD,BGD,Rajshahi
Saidpur,Saidpur,25.80042645,88.99998328,232209,Bangladesh,BD,BGD,Rajshahi
Rangpur,Rangpur,25.75001609,89.28001786,285564,Bangladesh,BD,BGD,Rajshahi
Khulna,Khulna,22.839987,89.56000077,1447669.5,Bangladesh,BD,BGD,Khulna
Rajshahi,Rajshahi,24.37498374,88.6050203,755066.5,Bangladesh,BD,BGD,Rajshahi
Dhaka,Dhaka,23.72305971,90.40857947,9899167,Bangladesh,BD,BGD,Dhaka
Chittagong,Chittagong,22.32999229,91.79996741,4224611,Bangladesh,BD,BGD,Chittagong
Bridgetown,Bridgetown,13.10200258,-59.61652674,143865,Barbados,BB,BRB,Saint Michael
Baranavichy,Baranavichy,53.13684572,26.01344031,156514.5,Belarus,BY,BLR,Brest
Polatsk,Polatsk,55.48938946,28.78598425,79216,Belarus,BY,BLR,Vitsyebsk
Maladzyechna,Maladzyechna,54.31878908,26.86532629,96055,Belarus,BY,BLR,Minsk
Pinsk,Pinsk,52.12786338,26.09405554,120838.5,Belarus,BY,BLR,Brest
Mazyr,Mazyr,52.04595624,29.27215613,100936,Belarus,BY,BLR,Homyel'
Mahilyow,Mahilyow,53.89850466,30.32465002,343527,Belarus,BY,BLR,Mahilyow
Babruysk,Babruysk,53.12656211,29.19278113,212821.5,Belarus,BY,BLR,Mahilyow
Orsha,Orsha,54.51531455,30.42154333,130276.5,Belarus,BY,BLR,Vitsyebsk
Lida,Lida,53.88847943,25.28464758,99126,Belarus,BY,BLR,Hrodna
Hrodna,Hrodna,53.67787213,23.83409013,285867,Belarus,BY,BLR,Hrodna
Barysaw,Barysaw,54.22600405,28.49215206,127694.5,Belarus,BY,BLR,Minsk
Homyel,Homyel,52.43001548,31.00000932,472337.5,Belarus,BY,BLR,Homyel'
Vitsyebsk,Vitsyebsk,55.18871014,30.18533036,333318.5,Belarus,BY,BLR,Vitsyebsk
Brest,Brest,52.09998395,23.69998979,266775,Belarus,BY,BLR,Brest
Minsk,Minsk,53.89997744,27.56662716,1691069,Belarus,BY,BLR,Minsk
Mons,Mons,50.44599911,3.939003561,91277,Belgium,BE,BEL,Hainaut
Hasselt,Hasselt,50.96400317,5.483997561,69222,Belgium,BE,BEL,Limburg
Arlon,Arlon,49.68330313,5.816700472,26179,Belgium,BE,BEL,Arlon
Gent,Gent,51.02999758,3.700021931,337914.5,Belgium,BE,BEL,East Flanders
Liege,Liege,50.62999615,5.580010537,472803,Belgium,BE,BEL,Liege
Brugge,Brugge,51.22037355,3.230024779,131589,Belgium,BE,BEL,Brugge
Namur,Namur,50.47039349,4.870028034,97155.5,Belgium,BE,BEL,Namur
Charleroi,Charleroi,50.42039654,4.450001992,272749.5,Belgium,BE,BEL,Charleroi
Antwerpen,Antwerpen,51.22037355,4.415017048,689902.5,Belgium,BE,BEL,Antwerp
Brussels,Brussels,50.83331708,4.333316608,1381011,Belgium,BE,BEL,Brussels
El Cayo,El Cayo,17.15599807,-89.06100252,13451,Belize,BZ,BLZ,Cayo
Corozal,Corozal,18.39799811,-88.3880005,8724,Belize,BZ,BLZ,Corozal
Dangriga,Dangriga,16.97003522,-88.22000045,8506,Belize,BZ,BLZ,Stann Creek
Belize City,Belize City,17.49871096,-88.18837447,62244.5,Belize,BZ,BLZ,Belize
Orange Walk,Orange Walk,18.09043194,-88.5599797,18066.5,Belize,BZ,BLZ,Orange Walk
Punta Gorda,Punta Gorda,16.1003467,-88.81001612,6387,Belize,BZ,BLZ,Toledo
Belmopan,Belmopan,17.25203351,-88.767073,14300.5,Belize,BZ,BLZ,Cayo
Lokossa,Lokossa,6.615000092,1.715004457,86971,Benin,BJ,BEN,Mono
Kandi,Kandi,11.13036582,2.940016641,73483,Benin,BJ,BEN,Alibori
Ouidah,Ouidah,6.360372741,2.089991006,83503,Benin,BJ,BEN,Atlantique
Abomey,Abomey,7.190399596,1.98999711,82154,Benin,BJ,BEN,Zou
Natitingou,Natitingou,10.32041526,1.389982054,65356.5,Benin,BJ,BEN,Atakora
Djougou,Djougou,9.700427265,1.680041869,152708.5,Benin,BJ,BEN,Donga
Parakou,Parakou,9.340009988,2.620036172,176303,Benin,BJ,BEN,Borgou
Porto-Novo,Porto-Novo,6.483310973,2.616625528,267084,Benin,BJ,BEN,Ouémé
Cotonou,Cotonou,6.400008564,2.519990599,726292,Benin,BJ,BEN,Ouémé
Hamilton,Hamilton,32.29419029,-64.78393742,32910,Bermuda,BM,BMU,
Paro,Paro,27.3833011,89.51670065,15000,Bhutan,BT,BTN,Thimphu
Punakha,Punakha,27.63330305,89.83330266,5000,Bhutan,BT,BTN,Punakha
Wangdue Prodrang,Wangdue Prodrang,27.43329603,89.91669667,5000,Bhutan,BT,BTN,Wangdi Phodrang
Thimphu,Thimphu,27.47298586,89.63901404,88930.5,Bhutan,BT,BTN,Thimphu
Punata,Punata,-17.55000242,-65.83997115,20758.5,Bolivia,BO,BOL,Cochabamba
Cliza,Cliza,-17.58999998,-65.9299915,12235,Bolivia,BO,BOL,Cochabamba
Quillacollo,Quillacollo,-17.39998574,-66.27999597,227052,Bolivia,BO,BOL,Cochabamba
Puerto Villarroel,Puerto Villarroel,-16.87004393,-64.78001001,1778,Bolivia,BO,BOL,Cochabamba
Tarabuco,Tarabuco,-19.18003213,-64.91994979,2364,Bolivia,BO,BOL,Chuquisaca
Guayaramerin,Guayaramerin,-10.82999917,-65.4099974,36008,Bolivia,BO,BOL,El Beni
Santa Ana,Santa Ana,-13.7600012,-65.57996118,234478,Bolivia,BO,BOL,El Beni
Baures,Baures,-13.58001219,-63.58005742,2422,Bolivia,BO,BOL,El Beni
Sica Sica,Sica Sica,-17.33001585,-67.72998499,1006,Bolivia,BO,BOL,La Paz
Rurrenabaque,Rurrenabaque,-14.46001015,-67.55999536,11749,Bolivia,BO,BOL,La Paz
Sorata,Sorata,-15.79000649,-68.66005742,2190,Bolivia,BO,BOL,La Paz
Achacachi,Achacachi,-16.08332192,-68.66656865,8447,Bolivia,BO,BOL,La Paz
Viacha,Viacha,-16.65000568,-68.2999502,34776,Bolivia,BO,BOL,La Paz
Quime,Quime,-16.98001137,-67.22001612,3224.5,Bolivia,BO,BOL,La Paz
Llallagua,Llallagua,-18.42002684,-66.63999984,28069,Bolivia,BO,BOL,Potosí
Uncia,Uncia,-18.46999795,-66.57002995,4723,Bolivia,BO,BOL,Potosí
Uyuni,Uyuni,-20.46000568,-66.82998824,11616,Bolivia,BO,BOL,Potosí
Villa Martin,Villa Martin,-20.76655027,-67.7833409,10,Bolivia,BO,BOL,Potosí
Betanzos,Betanzos,-19.55995726,-65.45002079,4629.5,Bolivia,BO,BOL,Potosí
Portachuelo,Portachuelo,-17.36003986,-63.40001673,9982,Bolivia,BO,BOL,Santa Cruz
Samaipata,Samaipata,-18.18004148,-63.77001998,2926,Bolivia,BO,BOL,Santa Cruz
Cuevo,Cuevo,-20.45003213,-63.52998295,953,Bolivia,BO,BOL,Santa Cruz
San Carlos,San Carlos,-17.39998574,-63.72999658,5266.5,Bolivia,BO,BOL,Santa Cruz
San Lorenzo,San Lorenzo,-21.47994342,-64.77001062,3000,Bolivia,BO,BOL,Tarija
Entre Rios,Entre Rios,-21.53001788,-64.18999435,2685,Bolivia,BO,BOL,Tarija
Aiquile,Aiquile,-18.18954995,-65.18001144,5844,Bolivia,BO,BOL,Cochabamba
Padilla,Padilla,-19.29961139,-64.30996118,2276.5,Bolivia,BO,BOL,Chuquisaca
Camargo,Camargo,-20.63958128,-65.20998377,4715,Bolivia,BO,BOL,Chuquisaca
Reyes,Reyes,-14.30958006,-67.37000696,7376,Bolivia,BO,BOL,El Beni
San Borja,San Borja,-14.81962645,-66.84996118,19640,Bolivia,BO,BOL,El Beni
Magdalena,Magdalena,-13.2600834,-64.05276758,3445,Bolivia,BO,BOL,El Beni
San Ramon,San Ramon,-13.28959064,-64.70998845,5439.5,Bolivia,BO,BOL,El Beni
Puerto Heath,Puerto Heath,-12.49961302,-68.66656865,10,Bolivia,BO,BOL,La Paz
Charana,Charana,-17.5996118,-69.46659733,197,Bolivia,BO,BOL,La Paz
Puerto Acosta,Puerto Acosta,-15.49958494,-69.16666732,1123,Bolivia,BO,BOL,La Paz
Apolo,Apolo,-14.71958087,-68.41999455,4189,Bolivia,BO,BOL,La Paz
Coroico,Coroico,-16.18962034,-67.72001144,2361,Bolivia,BO,BOL,La Paz
Coro Coro,Coro Coro,-17.1696122,-68.44996688,1884,Bolivia,BO,BOL,La Paz
Sabaya,Sabaya,-19.01626951,-68.38327844,573,Bolivia,BO,BOL,Oruro
Challapata,Challapata,-18.89958413,-66.77999129,8565,Bolivia,BO,BOL,Oruro
Llica,Llica,-19.84960366,-68.25003076,553,Bolivia,BO,BOL,Potosí
Potosi,Potosi,-19.56956907,-65.75002832,160576,Bolivia,BO,BOL,Potosí
Villazon,Villazon,-22.07959674,-65.5999858,33734,Bolivia,BO,BOL,Potosí
Tupiza,Tupiza,-21.43958413,-65.72000431,25499.5,Bolivia,BO,BOL,Potosí
Montero,Montero,-17.34960122,-63.26002527,83821,Bolivia,BO,BOL,Santa Cruz
Piso Firme,Piso Firme,-13.68295164,-61.86662195,72,Bolivia,BO,BOL,Santa Cruz
Robore,Robore,-18.3295414,-59.75998051,9959,Bolivia,BO,BOL,Santa Cruz
Puerto Quijarro,Puerto Quijarro,-17.77960081,-57.77002446,10392,Bolivia,BO,BOL,Santa Cruz
San Ignacio,San Ignacio,-16.36960936,-60.96001062,24480,Bolivia,BO,BOL,Santa Cruz
Ascension,Ascension,-15.69957273,-63.07998458,12085,Bolivia,BO,BOL,Santa Cruz
San Javier,San Javier,-16.28961424,-62.50001998,4210,Bolivia,BO,BOL,Santa Cruz
San Rafael,San Rafael,-16.77950682,-60.6799502,1201,Bolivia,BO,BOL,Santa Cruz
Vallegrande,Vallegrande,-18.48958331,-64.10999923,6857.5,Bolivia,BO,BOL,Santa Cruz
Puerto Suarez,Puerto Suarez,-18.94955524,-57.8499679,17273,Bolivia,BO,BOL,Santa Cruz
Charagua,Charagua,-19.79958087,-63.2199502,3025,Bolivia,BO,BOL,Santa Cruz
Villamontes,Villamontes,-21.24956989,-63.50001062,18761,Bolivia,BO,BOL,Tarija
Bermejo,Bermejo,-22.72958291,-64.34998458,36544,Bolivia,BO,BOL,Tarija
Cochabamba,Cochabamba,-17.41001097,-66.16997685,804138,Bolivia,BO,BOL,Cochabamba
Oruro,Oruro,-17.97995034,-67.12999577,227592.5,Bolivia,BO,BOL,Oruro
Camiri,Camiri,-20.05000486,-63.51998356,19212.5,Bolivia,BO,BOL,Santa Cruz
Cobija,Cobija,-11.03334593,-68.73330876,35511,Bolivia,BO,BOL,Pando
San Matias,San Matias,-16.35999754,-58.42001062,6352,Bolivia,BO,BOL,Santa Cruz
San José,San Jose,-17.85003579,-60.77999577,9211,Bolivia,BO,BOL,Santa Cruz
Trinidad,Trinidad,-14.83337238,-64.89997685,69333.5,Bolivia,BO,BOL,El Beni
Tarija,Tarija,-21.51668537,-64.749986,155513,Bolivia,BO,BOL,Tarija
Sucre,Sucre,-19.04097085,-65.25951563,223287,Bolivia,BO,BOL,Chuquisaca
Riberalta,Riberalta,-10.98301308,-66.10000696,74014,Bolivia,BO,BOL,El Beni
La Paz,La Paz,-16.49797361,-68.14998519,1201399.5,Bolivia,BO,BOL,La Paz
Santa Cruz,Santa Cruz,-17.75391762,-63.22599634,1859530.5,Bolivia,BO,BOL,Santa Cruz
Zenica,Zenica,44.21997398,17.91998083,151388,Bosnia and Herzegovina,BA,BIH,Zenica-Doboj
Mostar,Mostar,43.35049217,17.82003861,133792.5,Bosnia and Herzegovina,BA,BIH,Herzegovina-Neretva
Tuzla,Tuzla,44.5504706,18.6800378,143410,Bosnia and Herzegovina,BA,BIH,Tuzla
Prijedor,Prijedor,44.98039268,16.70000362,70602.5,Bosnia and Herzegovina,BA,BIH,Serbian Republic
Banja Luka,Banja Luka,44.78040489,17.17997432,221422,Bosnia and Herzegovina,BA,BIH,Serbian Republic
Sarajevo,Sarajevo,43.8500224,18.38300167,662816.5,Bosnia and Herzegovina,BA,BIH,Sarajevo
Mochudi,Mochudi,-24.377004,26.15200256,39700,Botswana,BW,BWA,Kgatleng
Ghanzi,Ghanzi,-21.69961994,21.63996049,6306,Botswana,BW,BWA,Ghanzi
Lokhwabe,Lokhwabe,-24.16959837,21.83002641,1473,Botswana,BW,BWA,Kgalagadi
Lehututu,Lehututu,-23.96961058,21.87002397,1942,Botswana,BW,BWA,Kgalagadi
Tshabong,Tshabong,-26.00948606,22.40001745,9679,Botswana,BW,BWA,Kgalagadi
Tsau,Tsau,-20.15961058,22.45996212,1409,Botswana,BW,BWA,North-West
Nokaneng,Nokaneng,-19.66961465,22.26999955,1763,Botswana,BW,BWA,North-West
Mohembo,Mohembo,-18.29956907,21.8000024,757,Botswana,BW,BWA,North-West
Maun,Maun,-19.98959511,23.42000688,47059,Botswana,BW,BWA,North-West
Kasane,Kasane,-17.80957314,25.15003048,7774.5,Botswana,BW,BWA,North-West
Nata,Nata,-20.20947833,26.19001868,2492.5,Botswana,BW,BWA,Central
Mopipi,Mopipi,-21.17954832,24.88002112,3301,Botswana,BW,BWA,Central
Palapye,Palapye,-22.55961912,27.13001298,27179,Botswana,BW,BWA,Central
Lobatse,Lobatse,-25.2196118,25.68002397,50343.5,Botswana,BW,BWA,South-East
Kanye,Kanye,-24.96960122,25.33999304,45773.5,Botswana,BW,BWA,Southern
Molepolole,Molepolole,-24.3999719,25.5100085,57713,Botswana,BW,BWA,Kweneng
Francistown,Francistown,-21.17003986,27.50001623,89179.5,Botswana,BW,BWA,Central
Mahalapye,Mahalapye,-23.09999957,26.82000606,47607.5,Botswana,BW,BWA,Central
Serowe,Serowe,-22.39001707,26.71003861,47996,Botswana,BW,BWA,Central
Gaborone,Gaborone,-24.64631346,25.91194779,183827,Botswana,BW,BWA,South-East
Grajau,Grajau,-5.809995505,-46.14998438,30217,Brazil,BR,BRA,Maranhão
Presidente Dutra,Presidente Dutra,-5.250029685,-44.51998051,30330,Brazil,BR,BRA,Maranhão
Itapecuru Mirim,Itapecuru Mirim,-3.400013409,-44.36001611,22347,Brazil,BR,BRA,Maranhão
Sao Jose de Ribamar,Sao Jose de Ribamar,-2.549987774,-44.06998214,41521,Brazil,BR,BRA,Maranhão
Santa Ines,Santa Ines,-3.659997539,-45.39003076,58511.5,Brazil,BR,BRA,Maranhão
Rosario,Rosario,-2.940041485,-44.26002222,6798,Brazil,BR,BRA,Maranhão
Timon,Timon,-5.114999167,-42.84496647,203157,Brazil,BR,BRA,Maranhão
Capanema,Capanema,-1.190019105,-47.17999903,45831,Brazil,BR,BRA,Pará
Portel,Portel,-1.949972718,-50.81998356,10855,Brazil,BR,BRA,Pará
Itupiranga,Itupiranga,-5.120011781,-49.30002466,21301,Brazil,BR,BRA,Pará
Pimenta Bueno,Pimenta Bueno,-11.64002724,-61.20999536,25762,Brazil,BR,BRA,Rondônia
Ponta Pora,Ponta Pora,-22.53000853,-55.7299681,75047,Brazil,BR,BRA,Mato Grosso do Sul
Maracaju,Maracaju,-21.610013,-55.18002751,18156,Brazil,BR,BRA,Mato Grosso do Sul
Jardim,Jardim,-21.47994342,-56.15001998,21252.5,Brazil,BR,BRA,Mato Grosso do Sul
Tres Lagoas,Tres Lagoas,-20.79001137,-51.72000615,64217.5,Brazil,BR,BRA,Mato Grosso do Sul
Guanhaes,Guanhaes,-18.78000486,-42.95002466,16761.5,Brazil,BR,BRA,Minas Gerais
Leopoldina,Leopoldina,-21.53001788,-42.64004358,37412,Brazil,BR,BRA,Minas Gerais
Nova Lima,Nova Lima,-19.98003497,-43.8500214,60413.5,Brazil,BR,BRA,Minas Gerais
Pouso Alegre,Pouso Alegre,-22.22000161,-45.94002303,102517.5,Brazil,BR,BRA,Minas Gerais
Itauna,Itauna,-20.06003009,-44.57002914,70233,Brazil,BR,BRA,Minas Gerais
Caratinga,Caratinga,-19.79002073,-42.13999658,47517.5,Brazil,BR,BRA,Minas Gerais
Diamantina,Diamantina,-18.23998615,-43.60998438,25184.5,Brazil,BR,BRA,Minas Gerais
Nanuque,Nanuque,-17.83995888,-40.35002832,27210.5,Brazil,BR,BRA,Minas Gerais
Barbacena,Barbacena,-21.22001097,-43.77000045,101628.5,Brazil,BR,BRA,Minas Gerais
Pocos de Caldas,Pocos de Caldas,-21.78002846,-46.56998458,125498.5,Brazil,BR,BRA,Minas Gerais
Guaxupe,Guaxupe,-21.29003253,-46.7099502,43379.5,Brazil,BR,BRA,Minas Gerais
Sao Joao del Rei,Sao Joao del Rei,-21.1300423,-44.24999699,68731.5,Brazil,BR,BRA,Minas Gerais
Muriae,Muriae,-21.1300423,-42.38998132,76728.5,Brazil,BR,BRA,Minas Gerais
Passos,Passos,-20.71001626,-46.60998214,85136.5,Brazil,BR,BRA,Minas Gerais
Conselheiro Lafaiete,Conselheiro Lafaiete,-20.6700187,-43.78999923,102926,Brazil,BR,BRA,Minas Gerais
Formiga,Formiga,-20.46000568,-45.43002832,46076.5,Brazil,BR,BRA,Minas Gerais
Frutal,Frutal,-20.03000608,-48.94002079,26797,Brazil,BR,BRA,Minas Gerais
Iturama,Iturama,-19.72997272,-50.2000214,21048.5,Brazil,BR,BRA,Minas Gerais
Ituiutaba,Ituiutaba,-18.97001911,-49.45998906,63978,Brazil,BR,BRA,Minas Gerais
Araguari,Araguari,-18.64001341,-48.19998845,79910.5,Brazil,BR,BRA,Minas Gerais
Almenara,Almenara,-16.17003497,-40.70000696,22173.5,Brazil,BR,BRA,Minas Gerais
Varzea Grande,Varzea Grande,-15.65001504,-56.14002059,242088,Brazil,BR,BRA,Mato Grosso
Cáceres,Caceres,-16.0500423,-57.51001449,85274,Brazil,BR,BRA,Mato Grosso
Santana do Livramento,Santana do Livramento,-30.88004148,-55.53000615,87312,Brazil,BR,BRA,Rio Grande do Sul
Canoas,Canoas,-29.91999673,-51.17998743,466661,Brazil,BR,BRA,Rio Grande do Sul
Quarai,Quarai,-30.38002033,-56.45994938,18462,Brazil,BR,BRA,Rio Grande do Sul
Santa Vitoria do Palmar,Santa Vitoria do Palmar,-33.52003538,-53.36998295,21826,Brazil,BR,BRA,Rio Grande do Sul
Sao Lourenco do Sul,Sao Lourenco do Sul,-31.36998574,-51.98001611,21673,Brazil,BR,BRA,Rio Grande do Sul
Canela,Canela,-29.36003091,-50.81001001,47167,Brazil,BR,BRA,Rio Grande do Sul
Sao Gabriel,Sao Gabriel,-30.32002399,-54.32002832,41849.5,Brazil,BR,BRA,Rio Grande do Sul
Rosario do Sul,Rosario do Sul,-30.25000242,-54.92001754,28596.5,Brazil,BR,BRA,Rio Grande do Sul
Cachoeira do Sul,Cachoeira do Sul,-30.02996417,-52.90998519,61871,Brazil,BR,BRA,Rio Grande do Sul
Osorio,Osorio,-29.87999917,-50.26999129,30882,Brazil,BR,BRA,Rio Grande do Sul
Santa Cruz do Sul,Santa Cruz do Sul,-29.71003538,-52.44003972,109869,Brazil,BR,BRA,Rio Grande do Sul
Sao Luiz Gonzaga,Sao Luiz Gonzaga,-28.41001137,-54.95998926,27798.5,Brazil,BR,BRA,Rio Grande do Sul
Santo Angelo,Santo Angelo,-28.30004393,-54.28003076,65013,Brazil,BR,BRA,Rio Grande do Sul
Carazinho,Carazinho,-28.2900187,-52.80004358,49145,Brazil,BR,BRA,Rio Grande do Sul
Erechim,Erechim,-27.63000731,-52.26999841,85365.5,Brazil,BR,BRA,Rio Grande do Sul
Guaira,Guaira,-24.08996499,-54.2699797,28897.5,Brazil,BR,BRA,Paraná
Palmas,Palmas,-26.47999998,-51.99998906,29794.5,Brazil,BR,BRA,Paraná
Arapongas,Arapongas,-23.41000649,-51.43004968,91203.5,Brazil,BR,BRA,Paraná
Paranagua,Paranagua,-25.52787556,-48.53445345,135071,Brazil,BR,BRA,Paraná
Sao Jose dos Pinhais,Sao Jose dos Pinhais,-25.57002968,-49.18000615,472180,Brazil,BR,BRA,Paraná
Guarapuava,Guarapuava,-25.38001544,-51.48002079,123381.5,Brazil,BR,BRA,Paraná
Rio Negro,Rio Negro,-26.10002317,-49.79002059,44301.5,Brazil,BR,BRA,Paraná
Apucarana,Apucarana,-23.54999795,-51.4700214,102577,Brazil,BR,BRA,Paraná
Lapa,Lapa,-25.76004393,-49.72999841,19934.5,Brazil,BR,BRA,Paraná
Irati,Irati,-25.47003579,-50.65996749,41602,Brazil,BR,BRA,Paraná
Castro,Castro,-24.79002562,-50.00998132,38417.5,Brazil,BR,BRA,Paraná
Telemaco Borba,Telemaco Borba,-24.32995034,-50.61999577,53793.5,Brazil,BR,BRA,Paraná
Jacarezinho,Jacarezinho,-23.15994424,-49.97998316,33551,Brazil,BR,BRA,Paraná
Concordia,Concordia,-27.23003172,-52.03001306,46124.5,Brazil,BR,BRA,Santa Catarina
Blumenau,Blumenau,-26.9200248,-49.0899858,286326,Brazil,BR,BRA,Santa Catarina
Brusque,Brusque,-27.12998615,-48.9300214,81163.5,Brazil,BR,BRA,Santa Catarina
Ararangua,Ararangua,-28.94000486,-49.49998661,42198.5,Brazil,BR,BRA,Santa Catarina
Jaragua do Sul,Jaragua do Sul,-26.47999998,-49.09998519,128803.5,Brazil,BR,BRA,Santa Catarina
Tubarao,Tubarao,-28.48003294,-49.02001591,79760,Brazil,BR,BRA,Santa Catarina
Laguna,Laguna,-28.48003294,-48.77997888,32532,Brazil,BR,BRA,Santa Catarina
Joacaba,Joacaba,-27.17003538,-51.4999679,31196,Brazil,BR,BRA,Santa Catarina
Cacador,Cacador,-26.77000812,-51.02002303,57155.5,Brazil,BR,BRA,Santa Catarina
Canoinhas,Canoinhas,-26.17996662,-50.4000092,40180,Brazil,BR,BRA,Santa Catarina
Camocim,Camocim,-2.89999225,-40.85002364,27794.5,Brazil,BR,BRA,Ceará
Russas,Russas,-4.940022767,-37.97999211,33613.5,Brazil,BR,BRA,Ceará
Sobral,Sobral,-3.690021547,-40.35002832,148439.5,Brazil,BR,BRA,Ceará
Iguatu,Iguatu,-6.359987774,-39.29998906,56638,Brazil,BR,BRA,Ceará
Quixada,Quixada,-4.969995098,-39.02000615,30723.5,Brazil,BR,BRA,Ceará
Caninde,Caninde,-4.35003294,-39.30998845,32085,Brazil,BR,BRA,Ceará
Campo Maior,Campo Maior,-4.820030091,-42.18001998,24089.5,Brazil,BR,BRA,Piauí
Barras,Barras,-4.250039043,-42.29998682,11951.5,Brazil,BR,BRA,Piauí
Rio Largo,Rio Largo,-9.48000405,-35.83996769,110966,Brazil,BR,BRA,Alagoas
Palmeira dos Indios,Palmeira dos Indios,-9.416597067,-36.61663863,41095,Brazil,BR,BRA,Alagoas
Santa Cruz Cabralia,Santa Cruz Cabralia,-16.28000242,-39.0299797,9980.5,Brazil,BR,BRA,Bahia
Paulo Afonso,Paulo Afonso,-9.330659161,-38.26565943,85350,Brazil,BR,BRA,Bahia
Brumado,Brumado,-14.20999957,-41.67002527,29300,Brazil,BR,BRA,Bahia
Jaguaquara,Jaguaquara,-13.5299894,-39.96999984,30554.5,Brazil,BR,BRA,Bahia
Itapetinga,Itapetinga,-15.24998777,-40.24998275,43224,Brazil,BR,BRA,Bahia
Ubaitaba,Ubaitaba,-14.30001992,-39.33001306,27411.5,Brazil,BR,BRA,Bahia
Cachoeiro de Itapemirim,Cachoeiro de Itapemirim,-20.85000771,-41.12998071,174808.5,Brazil,BR,BRA,Espírito Santo
Barra Mansa,Barra Mansa,-22.56003253,-44.1699502,166719,Brazil,BR,BRA,Rio de Janeiro
Nova Iguacu,Nova Iguacu,-22.74002155,-43.46996708,844583,Brazil,BR,BRA,Rio de Janeiro
Duque de Caxias,Duque de Caxias,-22.76999388,-43.30997685,842890,Brazil,BR,BRA,Rio de Janeiro
Niteroi,Niteroi,-22.90001178,-43.09998967,993920,Brazil,BR,BRA,Rio de Janeiro
Cabo Frio,Cabo Frio,-22.88998655,-42.03997685,184980,Brazil,BR,BRA,Rio de Janeiro
Macae,Macae,-22.37999184,-41.78999211,133083,Brazil,BR,BRA,Rio de Janeiro
Miracema,Miracema,-21.41002521,-42.19996708,22564.5,Brazil,BR,BRA,Rio de Janeiro
Apodi,Apodi,-5.650005271,-37.80000309,8586,Brazil,BR,BRA,Rio Grande do Norte
Santa Cruz,Santa Cruz,-6.219996319,-36.02998194,22003.5,Brazil,BR,BRA,Rio Grande do Norte
Morrinhos,Morrinhos,-17.73004311,-49.10998458,27841,Brazil,BR,BRA,Goiás
Ceres,Ceres,-15.30331785,-49.60519983,18658.5,Brazil,BR,BRA,Goiás
Catalao,Catalao,-18.18004148,-47.9500037,53646.5,Brazil,BR,BRA,Goiás
Cristalina,Cristalina,-16.76999835,-47.61002446,25627.5,Brazil,BR,BRA,Goiás
Trindade,Trindade,-16.65000568,-49.49998661,93113,Brazil,BR,BRA,Goiás
Ipora,Ipora,-16.45001788,-51.12999048,23354,Brazil,BR,BRA,Goiás
Inhumas,Inhumas,-16.35999754,-49.49998661,36122,Brazil,BR,BRA,Goiás
Itaberai,Itaberai,-16.01996662,-49.80996769,18710.5,Brazil,BR,BRA,Goiás
Santo Andre,Santo Andre,-23.65283405,-46.52781661,662373,Brazil,BR,BRA,São Paulo
Pindamonhangaba,Pindamonhangaba,-22.91995888,-45.47002588,123985,Brazil,BR,BRA,São Paulo
Rio Claro,Rio Claro,-22.40996417,-47.56002751,177710,Brazil,BR,BRA,São Paulo
Ourinhos,Ourinhos,-22.97003335,-49.86998987,96994,Brazil,BR,BRA,São Paulo
Itanhaem,Itanhaem,-24.17998533,-46.80002222,82722,Brazil,BR,BRA,São Paulo
Jaboticabal,Jaboticabal,-21.25003497,-48.32998051,60780.5,Brazil,BR,BRA,São Paulo
Braganca Paulista,Braganca Paulista,-22.95003457,-46.5499858,126386,Brazil,BR,BRA,São Paulo
Jundiai,Jundiai,-23.19999347,-46.8799915,413568.5,Brazil,BR,BRA,São Paulo
Sao Jose dos Campos,Sao Jose dos Campos,-23.19999347,-45.87994918,695322.5,Brazil,BR,BRA,São Paulo
Guaratingueta,Guaratingueta,-22.81996499,-45.18999129,154730,Brazil,BR,BRA,São Paulo
Pirassununga,Pirassununga,-21.99004148,-47.42998377,51698,Brazil,BR,BRA,São Paulo
Americana,Americana,-22.74994342,-47.32998987,337747,Brazil,BR,BRA,São Paulo
Piracicaba,Piracicaba,-22.70999754,-47.63999679,329530,Brazil,BR,BRA,São Paulo
Sao Joao da Boa Vista,Sao Joao da Boa Vista,-21.98001626,-46.78999699,68666,Brazil,BR,BRA,São Paulo
Sao Carlos,Sao Carlos,-22.02001382,-47.88998153,175219,Brazil,BR,BRA,São Paulo
Tupa,Tupa,-21.92999347,-50.5199502,51798.5,Brazil,BR,BRA,São Paulo
Penapolis,Penapolis,-21.41002521,-50.08000289,44795,Brazil,BR,BRA,São Paulo
Presidente Prudente,Presidente Prudente,-22.12000771,-51.39000045,199722,Brazil,BR,BRA,São Paulo
Registro,Registro,-24.49004393,-47.83998458,49485,Brazil,BR,BRA,São Paulo
Tatui,Tatui,-23.35001015,-47.8600092,81936,Brazil,BR,BRA,São Paulo
Avare,Avare,-23.1100248,-48.9300214,70709,Brazil,BR,BRA,São Paulo
Garca,Garca,-22.22000161,-49.65997685,38460,Brazil,BR,BRA,São Paulo
Catanduva,Catanduva,-21.14001585,-48.97996668,105238,Brazil,BR,BRA,São Paulo
Batatais,Batatais,-20.89000527,-47.58999984,44061,Brazil,BR,BRA,São Paulo
Barretos,Barretos,-20.55002602,-48.58001693,97562,Brazil,BR,BRA,São Paulo
Marilia,Marilia,-22.21002806,-49.95001083,191083.5,Brazil,BR,BRA,São Paulo
Itu,Itu,-23.26004148,-47.30001754,228878,Brazil,BR,BRA,São Paulo
Itapetininga,Itapetininga,-23.58999551,-48.03999821,120889,Brazil,BR,BRA,São Paulo
Jaboatao,Jaboatao,-8.110010153,-35.02004358,681214,Brazil,BR,BRA,Pernambuco
Olinda,Olinda,-7.999991029,-34.8499506,659554,Brazil,BR,BRA,Pernambuco
Cabo de Santo Agostinho,Cabo de Santo Agostinho,-8.289999167,-35.02999129,144662,Brazil,BR,BRA,Pernambuco
Carpina,Carpina,-7.840000795,-35.26000309,118134,Brazil,BR,BRA,Pernambuco
Arcoverde,Arcoverde,-8.420017071,-37.06999597,53066,Brazil,BR,BRA,Pernambuco
Manacapuru,Manacapuru,-3.289580873,-60.6199797,55780.5,Brazil,BR,BRA,Amazonas
Maues,Maues,-3.389626446,-57.72002751,27518,Brazil,BR,BRA,Amazonas
Pedreiras,Pedreiras,-4.569606101,-44.67002303,13638,Brazil,BR,BRA,Maranhão
Codo,Codo,-4.479585756,-43.8799679,83288,Brazil,BR,BRA,Maranhão
Coroata,Coroata,-4.12958128,-44.15000309,34129,Brazil,BR,BRA,Maranhão
Chapadinha,Chapadinha,-3.739527569,-43.35999964,29807.5,Brazil,BR,BRA,Maranhão
Pinheiro,Pinheiro,-2.519602032,-45.0899974,24912,Brazil,BR,BRA,Maranhão
Barra do Corda,Barra do Corda,-5.509600404,-45.25996118,48901,Brazil,BR,BRA,Maranhão
Viana,Viana,-3.209585756,-45.00000289,15808.5,Brazil,BR,BRA,Maranhão
Colinas,Colinas,-6.039542217,-44.2399976,13562.5,Brazil,BR,BRA,Maranhão
Viseu,Viseu,-1.196478659,-46.14001083,9992.5,Brazil,BR,BRA,Pará
Capitao Poco,Capitao Poco,-1.74962319,-47.09000452,32704,Brazil,BR,BRA,Pará
Castanhal,Castanhal,-1.28959959,-47.93003076,125314.5,Brazil,BR,BRA,Pará
Salinopolis,Salinopolis,-0.609486065,-47.33998926,32384.5,Brazil,BR,BRA,Pará
Alenquer,Alenquer,-1.939585756,-54.78999964,26290,Brazil,BR,BRA,Pará
Oriximina,Oriximina,-1.759596742,-55.86998539,35300,Brazil,BR,BRA,Pará
Xinguara,Xinguara,-7.100614401,-49.94804712,4047,Brazil,BR,BRA,Pará
Jacundá,Jacunda,-4.599578431,-49.38996749,51375,Brazil,BR,BRA,Pará
Uruara,Uruara,-3.82959959,-54.02999435,10,Brazil,BR,BRA,Pará
Altamira,Altamira,-3.199612204,-52.21000208,56769,Brazil,BR,BRA,Pará
Paragominas,Paragominas,-2.959575176,-47.49000594,38095.5,Brazil,BR,BRA,Pará
Cameta,Cameta,-2.239619121,-49.509986,22705,Brazil,BR,BRA,Pará
Rolim de Moura,Rolim de Moura,-11.73020262,-61.78063237,24516,Brazil,BR,BRA,Rondônia
Ariquemes,Ariquemes,-9.939614239,-63.07998458,58096,Brazil,BR,BRA,Rondônia
Abuna,Abuna,-9.69539142,-65.35971623,1929,Brazil,BR,BRA,Rondônia
Tocantinopolis,Tocantinopolis,-6.319576804,-47.41998438,8750,Brazil,BR,BRA,Tocantins
Gurupi,Gurupi,-11.71960895,-49.05998763,45595.5,Brazil,BR,BRA,Tocantins
Aquidauana,Aquidauana,-20.46961749,-55.79001611,38053,Brazil,BR,BRA,Mato Grosso do Sul
Paranaiba,Paranaiba,-19.6795882,-51.20001205,25278.5,Brazil,BR,BRA,Mato Grosso do Sul
Sete Lagoas,Sete Lagoas,-19.44962807,-44.24999699,195032,Brazil,BR,BRA,Minas Gerais
Divinopolis,Divinopolis,-20.14953367,-44.89998316,181457,Brazil,BR,BRA,Minas Gerais
Ipatinga,Ipatinga,-19.4796004,-42.51999923,318320,Brazil,BR,BRA,Minas Gerais
Araxa,Araxa,-19.5795943,-46.95001306,70159.5,Brazil,BR,BRA,Minas Gerais
Lavras,Lavras,-21.24956989,-45.0099506,70436,Brazil,BR,BRA,Minas Gerais
Uba,Uba,-21.11960366,-42.95002466,81698.5,Brazil,BR,BRA,Minas Gerais
Campo Belo,Campo Belo,-20.88959186,-45.2799858,42042.5,Brazil,BR,BRA,Minas Gerais
Ponte Nova,Ponte Nova,-20.40962116,-42.8999502,40377,Brazil,BR,BRA,Minas Gerais
Curvelo,Curvelo,-18.75959267,-44.429986,45937,Brazil,BR,BRA,Minas Gerais
Paracatu,Paracatu,-17.19958453,-46.86999211,51673.5,Brazil,BR,BRA,Minas Gerais
Bocaiuva,Bocaiuva,-17.10961587,-43.81004968,22528.5,Brazil,BR,BRA,Minas Gerais
Aracuai,Aracuai,-16.85960529,-42.06994918,15301.5,Brazil,BR,BRA,Minas Gerais
Janauba,Janauba,-15.79961831,-43.30997685,38641,Brazil,BR,BRA,Minas Gerais
Juina,Juina,-11.3995768,-59.50002222,980,Brazil,BR,BRA,Mato Grosso
Barra do Garcas,Barra do Garcas,-15.87961342,-52.25999903,41214.5,Brazil,BR,BRA,Mato Grosso
Pontes e Lacerda,Pontes e Lacerda,-15.21960203,-59.3499797,22694.5,Brazil,BR,BRA,Mato Grosso
Barra do Bugres,Barra do Bugres,-15.06958535,-57.19000818,22386,Brazil,BR,BRA,Mato Grosso
Rondonopolis,Rondonopolis,-16.4694999,-54.63998295,146794,Brazil,BR,BRA,Mato Grosso
Uruguaiana,Uruguaiana,-29.76961831,-57.08998845,97736.5,Brazil,BR,BRA,Rio Grande do Sul
Sao Borja,Sao Borja,-28.65960854,-56.00997685,48450.5,Brazil,BR,BRA,Rio Grande do Sul
Novo Hamburgo,Novo Hamburgo,-29.70962197,-51.13998987,557017,Brazil,BR,BRA,Rio Grande do Sul
Rio Grande,Rio Grande,-32.04947915,-52.12000757,143150,Brazil,BR,BRA,Rio Grande do Sul
Camaqua,Camaqua,-30.83963051,-51.81000065,45112.5,Brazil,BR,BRA,Rio Grande do Sul
Bento Goncalves,Bento Goncalves,-29.1694999,-51.51996668,92561.5,Brazil,BR,BRA,Rio Grande do Sul
Vacaria,Vacaria,-28.49961831,-50.94000208,47275.5,Brazil,BR,BRA,Rio Grande do Sul
Ijui,Ijui,-28.38954751,-53.91994938,59047,Brazil,BR,BRA,Rio Grande do Sul
Santa Rosa,Santa Rosa,-27.86952757,-54.4599681,59119,Brazil,BR,BRA,Rio Grande do Sul
Maringa,Maringa,-23.4095414,-51.92996749,320029.5,Brazil,BR,BRA,Paraná
Cascavel,Cascavel,-24.95957599,-53.46002914,229300,Brazil,BR,BRA,Paraná
Campo Murao,Campo Murao,-24.04960569,-52.41998926,74173,Brazil,BR,BRA,Paraná
Foz do Iguacu,Foz do Iguacu,-25.52346922,-54.52998967,366989,Brazil,BR,BRA,Paraná
Sao Francisco do Sul,Sao Francisco do Sul,-26.23960122,-48.59998987,24354.5,Brazil,BR,BRA,Santa Catarina
Porto Uniao,Porto Uniao,-26.23960122,-51.07996769,50242.5,Brazil,BR,BRA,Santa Catarina
Itajai,Itajai,-26.89961261,-48.68001083,241421,Brazil,BR,BRA,Santa Catarina
Imbituba,Imbituba,-28.22960895,-48.66001205,28380,Brazil,BR,BRA,Santa Catarina
Lajes,Lajes,-27.80958291,-50.30998885,139972,Brazil,BR,BRA,Santa Catarina
Granja,Granja,-3.119513734,-40.83999841,17233,Brazil,BR,BRA,Ceará
Crato,Crato,-7.229598776,-39.42000757,164149.5,Brazil,BR,BRA,Ceará
Itapipoca,Itapipoca,-3.499542217,-39.58002364,31041,Brazil,BR,BRA,Ceará
Paracuru,Paracuru,-3.399548321,-39.04003076,19860,Brazil,BR,BRA,Ceará
Acarau,Acarau,-2.889605287,-40.11999068,21024.5,Brazil,BR,BRA,Ceará
Taua,Taua,-5.999492982,-40.31003076,29188,Brazil,BR,BRA,Ceará
Crateus,Crateus,-5.165590394,-40.66600387,40338,Brazil,BR,BRA,Ceará
Baturite,Baturite,-4.329569073,-38.87998885,17797.5,Brazil,BR,BRA,Ceará
Ipu,Ipu,-4.319595521,-40.72005742,14479.5,Brazil,BR,BRA,Ceará
Floriano,Floriano,-6.769575176,-43.0299681,35923,Brazil,BR,BRA,Piauí
Piripiri,Piripiri,-4.269572735,-41.78999211,32639,Brazil,BR,BRA,Piauí
Penedo,Penedo,-10.26961994,-36.58002588,37515.5,Brazil,BR,BRA,Alagoas
Itabuna,Itabuna,-14.78960244,-39.28001611,213799,Brazil,BR,BRA,Bahia
Itamaraju,Itamaraju,-17.0395943,-39.52994918,35055,Brazil,BR,BRA,Bahia
Guanambi,Guanambi,-14.22958494,-42.78998275,45730,Brazil,BR,BRA,Bahia
Porto Seguro,Porto Seguro,-16.42960569,-39.08002832,72031,Brazil,BR,BRA,Bahia
Valenca,Valenca,-13.3596122,-39.08002832,56584.5,Brazil,BR,BRA,Bahia
Serrinha,Serrinha,-11.64958738,-39.01000676,52953.5,Brazil,BR,BRA,Bahia
Tucano,Tucano,-10.96962889,-38.78999435,16199,Brazil,BR,BRA,Bahia
Senhor do Bonfim,Senhor do Bonfim,-10.44960895,-40.19001225,43577,Brazil,BR,BRA,Bahia
Remanso,Remanso,-9.599583314,-42.10999841,37945,Brazil,BR,BRA,Bahia
Itambe,Itambe,-15.23960081,-40.62998539,15450.5,Brazil,BR,BRA,Bahia
Bom Jesus da Lapa,Bom Jesus da Lapa,-13.2495414,-43.44002059,40691,Brazil,BR,BRA,Bahia
Itaberaba,Itaberaba,-12.5196118,-40.2999797,31722,Brazil,BR,BRA,Bahia
Sao Mateus,Sao Mateus,-18.72962034,-39.85998071,63375.5,Brazil,BR,BRA,Espírito Santo
Patos,Patos,-7.019585756,-37.29000838,85720.5,Brazil,BR,BRA,Paraíba
Volta Redonda,Volta Redonda,-22.51956989,-44.09496769,352971,Brazil,BR,BRA,Rio de Janeiro
Petropolis,Petropolis,-22.50949298,-43.19998356,279381,Brazil,BR,BRA,Rio de Janeiro
Nova Cruz,Nova Cruz,-6.469593487,-35.43999211,22563.5,Brazil,BR,BRA,Rio Grande do Norte
Caico,Caico,-6.459619935,-37.10001998,42378,Brazil,BR,BRA,Rio Grande do Norte
Acu,Acu,-5.57962197,-36.91005742,33303,Brazil,BR,BRA,Rio Grande do Norte
Estancia,Estancia,-11.26961058,-37.45002446,50690,Brazil,BR,BRA,Sergipe
Caracarai,Caracarai,1.816231505,-61.12767481,11368,Brazil,BR,BRA,Roraima
Porto Santana,Porto Santana,-0.039598369,-51.17998743,68849,Brazil,BR,BRA,Amapá
Rio Verde,Rio Verde,-17.81959837,-50.92997685,48318,Brazil,BR,BRA,Goiás
Pires do Rio,Pires do Rio,-17.29952675,-48.27998356,21688,Brazil,BR,BRA,Goiás
Anapolis,Anapolis,-16.31958657,-48.9599679,278595.5,Brazil,BR,BRA,Goiás
Goianesia,Goianesia,-15.30962238,-49.1300092,39217.5,Brazil,BR,BRA,Goiás
Niquelandia,Niquelandia,-14.46962197,-48.47002364,19785,Brazil,BR,BRA,Goiás
Itumbiara,Itumbiara,-18.39961465,-49.21000431,65343.5,Brazil,BR,BRA,Goiás
Jatai,Jatai,-17.87959471,-51.75000431,57135,Brazil,BR,BRA,Goiás
Mineiros,Mineiros,-17.56953611,-52.55998071,28247,Brazil,BR,BRA,Goiás
Formosa,Formosa,-15.53947915,-47.33998926,62585.5,Brazil,BR,BRA,Goiás
Sao Jose do Rio Preto,Sao Jose do Rio Preto,-20.79962319,-49.38996749,358243.5,Brazil,BR,BRA,São Paulo
Limeira,Limeira,-22.54954222,-47.40001144,241071,Brazil,BR,BRA,São Paulo
Taubate,Taubate,-23.01953937,-45.55999455,327600.5,Brazil,BR,BRA,São Paulo
Jau,Jau,-22.28960976,-48.57001754,102565.5,Brazil,BR,BRA,São Paulo
Assis,Assis,-22.65961302,-50.41998214,79133,Brazil,BR,BRA,São Paulo
Itapeva,Itapeva,-23.97958413,-48.88002446,55324,Brazil,BR,BRA,São Paulo
Botucatu,Botucatu,-22.87959959,-48.44999903,94938.5,Brazil,BR,BRA,São Paulo
Novo Horizonte,Novo Horizonte,-21.45958291,-49.2200037,29554,Brazil,BR,BRA,São Paulo
Andradina,Andradina,-20.90959064,-51.37994938,45715,Brazil,BR,BRA,São Paulo
Fernandopolis,Fernandopolis,-20.2696297,-50.26004358,55587,Brazil,BR,BRA,São Paulo
Barreiros,Barreiros,-8.829604473,-35.20000676,35472.5,Brazil,BR,BRA,Pernambuco
Salgueiro,Salgueiro,-8.059625632,-39.13002527,31565,Brazil,BR,BRA,Pernambuco
Goiana,Goiana,-7.559604473,-34.99999312,57764.5,Brazil,BR,BRA,Pernambuco
Timbauba,Timbauba,-7.499608135,-35.32002527,51327.5,Brazil,BR,BRA,Pernambuco
Bacabal,Bacabal,-4.229988588,-44.79998926,57296.5,Brazil,BR,BRA,Maranhão
Braganca,Braganca,-1.05002765,-46.76999821,56864.5,Brazil,BR,BRA,Pará
Obidos,Obidos,-1.910026836,-55.52000676,26278.5,Brazil,BR,BRA,Pará
Guajara-Miram,Guajara-Miram,-10.80002684,-65.34994938,51852.5,Brazil,BR,BRA,Rondônia
Porto Nacional,Porto Nacional,-10.70003294,-48.41994918,9129,Brazil,BR,BRA,Tocantins
Dourados,Dourados,-22.23002684,-54.80999841,144743.5,Brazil,BR,BRA,Mato Grosso do Sul
Governador Valadares,Governador Valadares,-18.87002521,-41.97000696,201317,Brazil,BR,BRA,Minas Gerais
Pirapora,Pirapora,-17.33001585,-44.92998132,55910,Brazil,BR,BRA,Minas Gerais
Juiz de Fora,Juiz de Fora,-21.77000324,-43.3749858,464764.5,Brazil,BR,BRA,Minas Gerais
Santa Maria,Santa Maria,-29.68331867,-53.80000838,239211.5,Brazil,BR,BRA,Rio Grande do Sul
Passo Fundo,Passo Fundo,-28.25002114,-52.41998926,164047,Brazil,BR,BRA,Rio Grande do Sul
Xapeco,Xapeco,-27.10001382,-52.64002751,154794,Brazil,BR,BRA,Santa Catarina
Joinville,Joinville,-26.31995807,-48.83994938,710737.5,Brazil,BR,BRA,Santa Catarina
Juazeiro do Norte,Juazeiro do Norte,-7.210013409,-39.32001367,222861,Brazil,BR,BRA,Ceará
Nova Vicosa,Nova Vicosa,-17.88000812,-39.37001062,30250,Brazil,BR,BRA,Bahia
Alagoinhas,Alagoinhas,-12.13999673,-38.42999048,123379,Brazil,BR,BRA,Bahia
Juazeiro,Juazeiro,-9.420007712,-40.49996749,95132,Brazil,BR,BRA,Bahia
Vitória,Vitoria,-20.32399331,-40.36599634,1008328,Brazil,BR,BRA,Espírito Santo
Joao Pessoa,Joao Pessoa,-7.10113513,-34.87607117,803441.5,Brazil,BR,BRA,Paraíba
Campina Grande,Campina Grande,-7.230012188,-35.88001693,383098.5,Brazil,BR,BRA,Paraíba
Nova Friburgo,Nova Friburgo,-22.25999917,-42.54004968,162676,Brazil,BR,BRA,Rio de Janeiro
Aracatuba,Aracatuba,-21.20998574,-50.45000615,166305,Brazil,BR,BRA,São Paulo
Sena Madureira,Sena Madureira,-9.070003236,-68.66997929,23354,Brazil,BR,BRA,Acre
Fonte Boa,Fonte Boa,-2.513814271,-66.09160954,13974.5,Brazil,BR,BRA,Amazonas
Eirunepe,Eirunepe,-6.66002114,-69.87380762,19462.5,Brazil,BR,BRA,Amazonas
Manicore,Manicore,-5.812165915,-61.29748356,17802,Brazil,BR,BRA,Amazonas
Barcelos,Barcelos,-0.97499347,-62.92389592,9968.5,Brazil,BR,BRA,Amazonas
Tonantins,Tonantins,-2.872707093,-67.80189274,2722,Brazil,BR,BRA,Amazonas
Tefe,Tefe,-3.36001585,-64.69998906,48189.5,Brazil,BR,BRA,Amazonas
Coari,Coari,-4.079971905,-63.12998153,51897.5,Brazil,BR,BRA,Amazonas
Sao Cabriel da Cachoeira,Sao Cabriel da Cachoeira,-0.133236065,-67.08330611,15231,Brazil,BR,BRA,Amazonas
Novo Airao,Novo Airao,-2.620784486,-60.94378422,9049,Brazil,BR,BRA,Amazonas
Itacoatiara,Itacoatiara,-3.140029278,-58.43998356,51509,Brazil,BR,BRA,Amazonas
Parintins,Parintins,-2.610035788,-56.74000981,64428,Brazil,BR,BRA,Amazonas
Natal,Natal,-6.983825664,-60.26994938,980588,Brazil,BR,BRA,Amazonas
Crato,Crato,-7.46389972,-63.03996118,164149.5,Brazil,BR,BRA,Amazonas
Imperatriz,Imperatriz,-5.520039043,-47.49000594,203339.5,Brazil,BR,BRA,Maranhão
Balsas,Balsas,-7.520020326,-46.04999048,39761.5,Brazil,BR,BRA,Maranhão
Breves,Breves,-1.680015036,-50.4900037,46818.5,Brazil,BR,BRA,Pará
Jacareacanga,Jacareacanga,-6.266608461,-57.65000594,31661,Brazil,BR,BRA,Pará
Tucurui,Tucurui,-3.679996319,-49.71999903,38472,Brazil,BR,BRA,Pará
Itaituba,Itaituba,-4.258617331,-55.92502079,78532,Brazil,BR,BRA,Pará
Conceicao do Araguaia,Conceicao do Araguaia,-8.250001608,-49.29002527,27115,Brazil,BR,BRA,Pará
Abaetetuba,Abaetetuba,-1.724530694,-48.88488014,78735,Brazil,BR,BRA,Pará
Principe da Beira,Principe da Beira,-12.41667234,-64.41664718,956,Brazil,BR,BRA,Rondônia
Araguaina,Araguaina,-7.190014629,-48.21001367,50444,Brazil,BR,BRA,Tocantins
Palmas,Palmas,-10.23773558,-48.2877867,215793.5,Brazil,BR,BRA,Tocantins
Teofilo Otoni,Teofilo Otoni,-17.87003457,-41.50000981,86865,Brazil,BR,BRA,Minas Gerais
Uberaba,Uberaba,-19.7799955,-47.9500037,234807,Brazil,BR,BRA,Minas Gerais
Januaria,Januaria,-15.47999957,-44.36998967,25753,Brazil,BR,BRA,Minas Gerais
Mato Grosso,Mato Grosso,-15.00002887,-59.95002059,1612,Brazil,BR,BRA,Mato Grosso
Aripuana,Aripuana,-9.169997133,-60.64000431,26983,Brazil,BR,BRA,Mato Grosso
Sinop,Sinop,-11.84998859,-55.45998458,8961,Brazil,BR,BRA,Mato Grosso
Jaguarao,Jaguarao,-32.5600423,-53.36998295,26020,Brazil,BR,BRA,Rio Grande do Sul
Bage,Bage,-31.32001463,-54.10001591,102519,Brazil,BR,BRA,Rio Grande do Sul
Londrina,Londrina,-23.30003904,-51.17998743,496035,Brazil,BR,BRA,Paraná
Criciuma,Criciuma,-28.68002073,-49.38996749,183085.5,Brazil,BR,BRA,Santa Catarina
Aracati,Aracati,-4.559994284,-37.77003076,28126.5,Brazil,BR,BRA,Ceará
Ico,Ico,-6.400037009,-38.84999068,15820,Brazil,BR,BRA,Ceará
Parnaiba,Parnaiba,-2.910017478,-41.76996749,125699,Brazil,BR,BRA,Piauí
Picos,Picos,-7.079995505,-41.43998763,47694.5,Brazil,BR,BRA,Piauí
Arapiraca,Arapiraca,-9.750013409,-36.66999455,177115,Brazil,BR,BRA,Alagoas
Jequie,Jequie,-13.85002155,-40.07999312,131524.5,Brazil,BR,BRA,Bahia
Ilheus,Ilheus,-14.7800423,-39.05000431,193060.5,Brazil,BR,BRA,Bahia
Canavieiras,Canavieiras,-15.64004148,-38.96000981,26375,Brazil,BR,BRA,Bahia
Santa Maria da Vitoria,Santa Maria da Vitoria,-13.38999795,-44.21002527,13176,Brazil,BR,BRA,Bahia
Irece,Irece,-11.29999632,-41.87001306,48079.5,Brazil,BR,BRA,Bahia
Xique-Xique,Xique-Xique,-10.82002562,-42.73001225,18633,Brazil,BR,BRA,Bahia
Linhares,Linhares,-19.38999347,-40.05002079,86413,Brazil,BR,BRA,Espírito Santo
Campos,Campos,-21.74995278,-41.32002079,378943,Brazil,BR,BRA,Rio de Janeiro
Mossoro,Mossoro,-5.190033347,-37.34000533,202294,Brazil,BR,BRA,Rio Grande do Norte
Aracaju,Aracaju,-10.90002073,-37.11996708,587765.5,Brazil,BR,BRA,Sergipe
Laranjal do Jari,Laranjal do Jari,-0.850039857,-52.48001144,43344,Brazil,BR,BRA,Amapá
Amapa,Amapa,2.049989847,-50.80001062,1947,Brazil,BR,BRA,Amapá
Vila Velha,Vila Velha,3.21666282,-51.21665186,742413.5,Brazil,BR,BRA,Amapá
Santos,Santos,-23.95372393,-46.33294266,1060201.5,Brazil,BR,BRA,São Paulo
Bauru,Bauru,-22.33002073,-49.08001225,307929.5,Brazil,BR,BRA,São Paulo
Iguape,Iguape,-24.72000405,-47.56994938,23602.5,Brazil,BR,BRA,São Paulo
Franca,Franca,-20.53002724,-47.39001205,281149.5,Brazil,BR,BRA,São Paulo
Garanhuns,Garanhuns,-8.890014222,-36.50003076,107115,Brazil,BR,BRA,Pernambuco
Caruaru,Caruaru,-8.280025616,-35.98001083,238732.5,Brazil,BR,BRA,Pernambuco
Rio Branco,Rio Branco,-9.966589336,-67.80000655,257642,Brazil,BR,BRA,Acre
São Luís,Sao Luis,-2.515984681,-44.26599085,524692.5,Brazil,BR,BRA,Maranhão
Porto Velho,Porto Velho,-8.750022767,-63.90001205,289534.5,Brazil,BR,BRA,Rondônia
Alvorada,Alvorada,-12.47000242,-49.08200179,9273,Brazil,BR,BRA,Tocantins
Corumba,Corumba,-19.01601113,-57.65000594,70035.5,Brazil,BR,BRA,Mato Grosso do Sul
Belo Horizonte,Belo Horizonte,-19.91502602,-43.91500452,3974112,Brazil,BR,BRA,Minas Gerais
Montes Claros,Montes Claros,-16.72002724,-43.86002079,300022,Brazil,BR,BRA,Minas Gerais
Uberlandia,Uberlandia,-18.89999754,-48.27998356,484862,Brazil,BR,BRA,Minas Gerais
Colider,Colider,-10.81728676,-55.45057947,27139,Brazil,BR,BRA,Mato Grosso
Alta Floresta,Alta Floresta,-9.900030091,-55.90998295,40466,Brazil,BR,BRA,Mato Grosso
Cuiaba,Cuiaba,-15.56960651,-56.08498519,603143.5,Brazil,BR,BRA,Mato Grosso
Pelotas,Pelotas,-31.75001422,-52.33002059,299270,Brazil,BR,BRA,Rio Grande do Sul
Caxias do Sul,Caxias do Sul,-29.17999022,-51.17003972,377580.5,Brazil,BR,BRA,Rio Grande do Sul
Ponta Grossa,Ponta Grossa,-25.09000731,-50.16004968,271321.5,Brazil,BR,BRA,Paraná
Teresina,Teresina,-5.095000388,-42.7800092,746860.5,Brazil,BR,BRA,Piauí
Maceio,Maceio,-9.619995505,-35.72997441,1000215.5,Brazil,BR,BRA,Alagoas
Vitoria da Conquista,Vitoria da Conquista,-14.85001219,-40.83999841,272320.5,Brazil,BR,BRA,Bahia
Barreiras,Barreiras,-12.13999673,-45.00000289,86245.5,Brazil,BR,BRA,Bahia
Vila Velha,Vila Velha,-20.36760822,-40.31798893,742413.5,Brazil,BR,BRA,Espírito Santo
Natal,Natal,-5.780023174,-35.24000431,925521.5,Brazil,BR,BRA,Rio Grande do Norte
Campinas,Campinas,-22.90001178,-47.10002975,1911277,Brazil,BR,BRA,São Paulo
Sorocaba,Sorocaba,-23.49000161,-47.46998132,561071.5,Brazil,BR,BRA,São Paulo
Ribeirao Preto,Ribeirao Preto,-21.17003986,-47.82998519,520774,Brazil,BR,BRA,São Paulo
Petrolina,Petrolina,-9.380010153,-40.50996688,227817.5,Brazil,BR,BRA,Pernambuco
Cruzeiro do Sul,Cruzeiro do Sul,-7.629987774,-72.66996769,56862,Brazil,BR,BRA,Acre
Manaus,Manaus,-3.100031719,-60.00001754,1636622,Brazil,BR,BRA,Amazonas
Caxias,Caxias,-4.833000876,-43.35002608,134640,Brazil,BR,BRA,Maranhão
Santarem,Santarem,-2.433250713,-54.69997929,209737.5,Brazil,BR,BRA,Pará
Maraba,Maraba,-5.349971905,-49.11597905,166182,Brazil,BR,BRA,Pará
Vilhena,Vilhena,-12.71660236,-60.11659957,63231,Brazil,BR,BRA,Rondônia
Ji-Parana,Ji-Parana,-10.83330646,-61.96700342,65016,Brazil,BR,BRA,Rondônia
Campo Grande,Campo Grande,-20.45003213,-54.61662521,687723,Brazil,BR,BRA,Mato Grosso do Sul
Florianopolis,Florianopolis,-27.57998452,-48.52002059,568783,Brazil,BR,BRA,Santa Catarina
Feira de Santana,Feira de Santana,-12.25001585,-38.9700092,449194.5,Brazil,BR,BRA,Bahia
Boa Vista,Boa Vista,2.816092955,-60.66599756,202299.5,Brazil,BR,BRA,Roraima
Macapá,Macapa,0.033007018,-51.0500212,433781.5,Brazil,BR,BRA,Amapá
Belem,Belem,-1.450003236,-48.48002303,1787368.5,Brazil,BR,BRA,Pará
Brasilia,Brasilia,-15.78334023,-47.91605229,3139979.5,Brazil,BR,BRA,Distrito Federal
Porto Alegre,Porto Alegre,-30.05001463,-51.20001205,2644870.5,Brazil,BR,BRA,Rio Grande do Sul
Curitiba,Curitiba,-25.420013,-49.3199976,2291430,Brazil,BR,BRA,Paraná
Fortaleza,Fortaleza,-3.750017884,-38.57998132,2958717.5,Brazil,BR,BRA,Ceará
Salvador,Salvador,-12.9699719,-38.47998743,3081422.5,Brazil,BR,BRA,Bahia
Goiania,Goiania,-16.72002724,-49.30002466,1596597.5,Brazil,BR,BRA,Goiás
Recife,Recife,-8.075645326,-34.91560551,2564549,Brazil,BR,BRA,Pernambuco
Rio de Janeiro,Rio de Janeiro,-22.92502317,-43.22502079,6879087.5,Brazil,BR,BRA,Rio de Janeiro
Sao Paulo,Sao Paulo,-23.55867959,-46.62501998,14433147.5,Brazil,BR,BRA,São Paulo
Bandar Seri Begawan,Bandar Seri Begawan,4.883331115,114.9332841,218250,Brunei,BN,BRN,Brunei and Muara
Lovec,Lovec,43.13799911,24.71900459,42211,Bulgaria,BG,BGR,Lovech
Montana,Montana,43.41400203,23.23700161,47445,Bulgaria,BG,BGR,Montana
Razgrad,Razgrad,43.53399903,26.53599663,38285,Bulgaria,BG,BGR,Razgrad
Sliven,Sliven,42.67937034,26.33001013,87346.5,Bulgaria,BG,BGR,Sliven
Plovdiv,Plovdiv,42.15397605,24.7539823,319089.5,Bulgaria,BG,BGR,Plovdiv
Pernik,Pernik,42.60999473,23.02271846,80625,Bulgaria,BG,BGR,Pernik
Vratsa,Vratsa,43.20998395,23.56253048,68287,Bulgaria,BG,BGR,Vratsa
Shumen,Shumen,43.27000612,26.92935339,75487.5,Bulgaria,BG,BGR,Shumen
Khaskovo,Khaskovo,41.94378216,25.5632869,72805,Bulgaria,BG,BGR,Haskovo
Stara Zagora,Stara Zagora,42.42313275,25.6227148,128315.5,Bulgaria,BG,BGR,Stara Zagora
Pleven,Pleven,43.42376935,24.61337073,110445.5,Bulgaria,BG,BGR,Pleven
Turnovo,Turnovo,43.08624473,25.65552934,53115,Bulgaria,BG,BGR,Veliko Tarnovo
Kyustendil,Kyustendil,42.28427818,22.6911108,49676.5,Bulgaria,BG,BGR,Kyustendil
Dobrich,Dobrich,43.58505149,27.83999548,73813,Bulgaria,BG,BGR,Dobrich
Varna,Varna,43.21564252,27.89528926,245522,Bulgaria,BG,BGR,Varna
Ruse,Ruse,43.85369143,25.97333939,170254,Bulgaria,BG,BGR,Ruse
Burgas,Burgas,42.51460004,27.47464311,174254,Bulgaria,BG,BGR,Burgas
Sofia,Sofia,42.68334943,23.31665401,1029913.5,Bulgaria,BG,BGR,Grad Sofiya
Fada Ngourma,Fada Ngourma,12.05499605,0.360999451,33910,Burkina Faso,BF,BFA,Gourma
Orodara,Orodara,10.97399705,-4.907996452,18632,Burkina Faso,BF,BFA,Kénédougou
Solenzo,Solenzo,12.1833333,-4.0833333,10385,Burkina Faso,BF,BFA,Banwa
Nouna,Nouna,12.7289971,-3.860000519,29048,Burkina Faso,BF,BFA,Kossi
Dedougou,Dedougou,12.455001,-3.464000439,45341,Burkina Faso,BF,BFA,Mou Houn
Gorom Gorom,Gorom Gorom,14.45000398,-0.233297546,6691,Burkina Faso,BF,BFA,Oudalan
Djibo,Djibo,14.09900404,-1.627001421,22223,Burkina Faso,BF,BFA,Soum
Tougan,Tougan,13.06899899,-3.069998409,17590,Burkina Faso,BF,BFA,Sourou
Kombissiri,Kombissiri,12.06399605,-1.333997543,30137,Burkina Faso,BF,BFA,Bazéga
Ziniare,Ziniare,12.57699605,-1.293002442,12703,Burkina Faso,BF,BFA,Oubritenga
Yako,Yako,12.95399712,-2.262995501,22904,Burkina Faso,BF,BFA,Passoré
Reo,Reo,12.33349214,-2.466944513,37535,Burkina Faso,BF,BFA,Sanguié
Leo,Leo,11.09400299,-2.097998529,26884,Burkina Faso,BF,BFA,Sissili
Sapouy,Sapouy,11.5544444,-1.7736111,3837,Burkina Faso,BF,BFA,Ziro
Boulsa,Boulsa,12.65699714,-0.568997532,17489,Burkina Faso,BF,BFA,Namentenga
Zorgo,Zorgo,12.24299707,-0.611000429,23892,Burkina Faso,BF,BFA,Ganzourgou
Koupela,Koupela,12.17700004,-0.356003514,32052,Burkina Faso,BF,BFA,Kouritenga
Po,Po,11.16900002,-1.134998478,17924,Burkina Faso,BF,BFA,Nahouri
Manga,Manga,11.66200198,-1.064996408,15173,Burkina Faso,BF,BFA,Zoundwéogo
Diebougou,Diebougou,10.95200113,-3.248000411,12732,Burkina Faso,BF,BFA,Bougouriba
Gaoua,Gaoua,10.32499811,-3.174002407,28023,Burkina Faso,BF,BFA,Poni
Bogande,Bogande,12.96900003,-0.1379965,9854,Burkina Faso,BF,BFA,Gnagna
Dori,Dori,14.0339971,-0.027998519,37806,Burkina Faso,BF,BFA,Séno
Sebba,Sebba,13.4364122,0.530443,3273,Burkina Faso,BF,BFA,Yagha
Diapaga,Diapaga,12.07700108,1.796004571,26013,Burkina Faso,BF,BFA,Tapoa
Koudougou,Koudougou,12.25047833,-2.369995159,85339,Burkina Faso,BF,BFA,Boulkiemdé
Ouahigouya,Ouahigouya,13.5704236,-2.419992108,70300,Burkina Faso,BF,BFA,Yatenga
Kaya,Kaya,13.09037539,-1.090047446,39623,Burkina Faso,BF,BFA,Sanmatenga
Tenkodogo,Tenkodogo,11.78040367,-0.369703818,37883,Burkina Faso,BF,BFA,Boulgou
Banfora,Banfora,10.63044802,-4.760004315,45903.5,Burkina Faso,BF,BFA,Komoé
Bobo Dioulasso,Bobo Dioulasso,11.1799752,-4.289981325,346035,Burkina Faso,BF,BFA,Houet
Ouagadougou,Ouagadougou,12.37031598,-1.524723756,992228.5,Burkina Faso,BF,BFA,Kadiogo
Cankuzo,Cankuzo,-3.166703921,30.51669662,6585,Burundi,BI,BDI,Cankuzo
Karusi,Karusi,-3.099995968,30.16299648,10705,Burundi,BI,BDI,Karuzi
Rutana,Rutana,-3.93100195,29.99300455,20893,Burundi,BI,BDI,Rutana
Ruyigi,Ruyigi,-3.481001905,30.2439966,38458,Burundi,BI,BDI,Ruyigi
Bubanza,Bubanza,-3.083300984,29.36670351,12728,Burundi,BI,BDI,Bubanza
Kayanza,Kayanza,-2.899997879,29.5667016,19443,Burundi,BI,BDI,Kayanza
Makamba,Makamba,-4.133303903,29.79999964,19642,Burundi,BI,BDI,Makamba
Ngozi,Ngozi,-2.912003884,29.82500157,21506,Burundi,BI,BDI,Ngozi
Kirundo,Kirundo,-2.5847222,30.0972222,6083,Burundi,BI,BDI,Kirundo
Muramvya,Muramvya,-3.260997006,29.61199862,18041,Burundi,BI,BDI,Muramvya
Bururi,Bururi,-3.950729147,29.61657955,20066.5,Burundi,BI,BDI,Bururi
Muyinga,Muyinga,-2.852346579,30.31726029,71076,Burundi,BI,BDI,Muyinga
Gitega,Gitega,-3.426006654,29.84359411,23167,Burundi,BI,BDI,Muramvya
Bujumbura,Bujumbura,-3.37608722,29.36000606,331700,Burundi,BI,BDI,Bujumbura Mairie
Kampong Spoe,Kampong Spoe,11.4519961,104.5189986,33231,Cambodia,KH,KHM,Kâmpóng Spœ
Kampong Thum,Kampong Thum,12.71199613,104.8889977,19951,Cambodia,KH,KHM,Kâmpóng Thum
Prey Veng,Prey Veng,11.48399998,105.3240036,74000,Cambodia,KH,KHM,Prey Vêng
Phnum Tbeng Meanchey,Phnum Tbeng Meanchey,13.816701,104.9667037,24380,Cambodia,KH,KHM,Preah Vihéar
Stoeng Treng,Stoeng Treng,13.52300408,105.9740016,29665,Cambodia,KH,KHM,Stœng Trêng
Kracheh,Kracheh,12.46899612,106.0239967,19975,Cambodia,KH,KHM,Krâchéh
Senmonorom,Senmonorom,12.44999711,107.1999997,7944,Cambodia,KH,KHM,Môndól Kiri
Lumphat,Lumphat,13.50700214,106.9810026,19205,Cambodia,KH,KHM,Rôtânôkiri
Svay Rieng,Svay Rieng,11.0799991,105.8010036,23956,Cambodia,KH,KHM,Svay Rieng
Sisophon,Sisophon,13.58375612,102.9833158,36760,Cambodia,KH,KHM,Bântéay Méanchey
Krong Koh Kong,Krong Koh Kong,11.61753897,102.9849329,30285,Cambodia,KH,KHM,Kaôh Kong
Pursat,Pursat,12.53369102,103.9166955,32961,Cambodia,KH,KHM,Pouthisat
Kampong Cham,Kampong Cham,12.00044191,105.4500386,72491.5,Cambodia,KH,KHM,Kâmpóng Cham
Kompong Chhnang,Kompong Chhnang,12.25047833,104.6666239,65817,Cambodia,KH,KHM,Kâmpóng Chhnang
Kampot,Kampot,10.61708966,104.1833459,36398,Cambodia,KH,KHM,Kâmpôt
Takeo,Takeo,10.98375978,104.7833093,15264,Cambodia,KH,KHM,Takêv
Battambang,Battambang,13.10001304,103.2000468,152608.5,Cambodia,KH,KHM,Batdâmbâng
Siem Reap,Siem Reap,13.36663759,103.8500329,97199,Cambodia,KH,KHM,Siemréab
Phnom Penh,Phnom Penh,11.55003013,104.9166345,1466000,Cambodia,KH,KHM,Phnom Penh
Buea,Buea,4.155003087,9.231003513,90088,Cameroon,CM,CMR,Sud-Ouest
Bafang,Bafang,5.170393696,10.17998816,86916.5,Cameroon,CM,CMR,Ouest
Foumban,Foumban,5.730385355,10.89999589,64399,Cameroon,CM,CMR,Ouest
Bafoussam,Bafoussam,5.490425841,10.40994828,290768,Cameroon,CM,CMR,Ouest
Kumba,Kumba,4.640374368,9.439981647,131122,Cameroon,CM,CMR,Sud-Ouest
Eyumojok,Eyumojok,5.750358296,8.983317015,5798,Cameroon,CM,CMR,Sud-Ouest
Limbe,Limbe,4.030385761,9.190022744,142290,Cameroon,CM,CMR,Sud-Ouest
Kribi,Kribi,2.940426452,9.910030476,31473,Cameroon,CM,CMR,Sud
Nkongsamba,Nkongsamba,4.960406513,9.940002806,105069,Cameroon,CM,CMR,Littoral
Edea,Edea,3.800477314,10.11999182,109506.5,Cameroon,CM,CMR,Littoral
Wum,Wum,6.400421976,10.07002071,42601,Cameroon,CM,CMR,Nord-Ouest
Kumbo,Kumbo,6.220381286,10.68000932,89728,Cameroon,CM,CMR,Nord-Ouest
Bafia,Bafia,4.750393493,11.23000159,41201,Cameroon,CM,CMR,Centre
Mbalmayo,Mbalmayo,3.520391051,11.50001094,53501.5,Cameroon,CM,CMR,Centre
Eseka,Eseka,3.650408955,10.76661902,14102,Cameroon,CM,CMR,Centre
Bertoua,Bertoua,4.580429707,13.67998124,153286.5,Cameroon,CM,CMR,Est
Abong Mbang,Abong Mbang,3.983696105,13.18331905,7698,Cameroon,CM,CMR,Est
Batouri,Batouri,4.433694477,14.366606,42271,Cameroon,CM,CMR,Est
Belabo,Belabo,4.933689798,13.30000443,11455.5,Cameroon,CM,CMR,Est
Meiganga,Meiganga,6.520492166,14.28996985,54864.5,Cameroon,CM,CMR,Adamaoua
Ngaoundere,Ngaoundere,7.320365823,13.57998734,134322.5,Cameroon,CM,CMR,Adamaoua
Tibati,Tibati,6.46698122,12.63332678,22096,Cameroon,CM,CMR,Adamaoua
Kontcha,Kontcha,7.967018859,12.23329952,5846,Cameroon,CM,CMR,Adamaoua
Guider,Guider,9.930387389,13.94001705,83319,Cameroon,CM,CMR,Nord
Mbe,Mbe,7.850436828,13.6000378,3950,Cameroon,CM,CMR,Nord
Douala,Douala,4.060409769,9.709991006,1622041,Cameroon,CM,CMR,Littoral
Ebolowa,Ebolowa,2.900015481,11.15000647,83687.5,Cameroon,CM,CMR,Sud
Bamenda,Bamenda,5.959983743,10.15001583,419567,Cameroon,CM,CMR,Nord-Ouest
Garoua,Garoua,9.30001243,13.39002478,365436.5,Cameroon,CM,CMR,Nord
Maroua,Maroua,10.59556643,14.32469641,260656,Cameroon,CM,CMR,Extrême-Nord
Yaounde,Yaounde,3.866700662,11.51665076,1335793.5,Cameroon,CM,CMR,Centre
Selkirk,Selkirk,50.15002545,-96.88332178,9819.5,Canada,CA,CAN,Manitoba
Berens River,Berens River,52.36655682,-97.03331262,522.5,Canada,CA,CAN,Manitoba
Pukatawagan,Pukatawagan,55.73327639,-101.3166171,431,Canada,CA,CAN,Manitoba
Gimli,Gimli,50.63330345,-96.99998133,2316,Canada,CA,CAN,Manitoba
